{
  "restaurants" : [ {
    "address" : "6700 General Beale Rd\nArvin, CA 93307",
    "contact_name" : "",
    "container_size" : 150,
    "formattedAddress" : "6700 General Beale Rd, Arvin, CA 93203",
    "frequency" : 30,
    "latitude" : 35.295178,
    "longitude" : -118.7553715,
    "name" : "Murray Family Farms",
    "telephone" : "",
    "zone" : "CA - Bakersfield Kern"
  }, {
    "address" : "3605 Mount Vernon\nBakersfield, CA 93306",
    "contact_name" : "Edger Gomez",
    "container_size" : 250,
    "formattedAddress" : "3605 Mt Vernon Ave, Bakersfield, CA 93306",
    "frequency" : 30,
    "latitude" : 35.4059389,
    "longitude" : -118.9658112,
    "name" : "La Pizza Veloz",
    "telephone" : "(661) 872-3637",
    "zone" : "CA - Bakersfield Kern"
  }, {
    "address" : "710 E Lerdo Hwy,\nShafter, CA 93263",
    "contact_name" : "Dave Miller",
    "container_size" : 130,
    "formattedAddress" : "710 E Lerdo Hwy, Shafter, CA 93263",
    "frequency" : 30,
    "latitude" : 35.5002322,
    "longitude" : -119.2647323,
    "name" : "Generals Headquarters",
    "telephone" : "(661) 746-6075",
    "zone" : "CA - Bakersfield Kern"
  }, {
    "address" : "9000 Ming Ave. Ste 02\nBakersfield, CA 93311",
    "contact_name" : "Paciano Hernandez",
    "container_size" : 30,
    "formattedAddress" : "9000 Ming Ave #02, Bakersfield, CA 93311",
    "frequency" : 30,
    "latitude" : 35.3413681,
    "longitude" : -119.103607,
    "name" : "Baja Fresh - Bakersfield #33",
    "telephone" : "(661) 665-2252",
    "zone" : "CA - Bakersfield Kern"
  }, {
    "address" : "1819 30th St\nBakersfield, CA 93301",
    "contact_name" : "Shannon Benton",
    "container_size" : 250,
    "formattedAddress" : "1819 30th St, Bakersfield, CA 93301",
    "frequency" : 30,
    "latitude" : 35.3863997,
    "longitude" : -119.0223154,
    "name" : "Mossman's Westchester Bowl",
    "telephone" : "(661) 325 2287",
    "zone" : "CA - Bakersfield Kern"
  }, {
    "address" : "8490 Rosedale Highway\nBakersfield, CA 93312",
    "contact_name" : "Greg Parker",
    "container_size" : 275,
    "formattedAddress" : "8490 Rosedale Hwy, Bakersfield, CA 93312",
    "frequency" : 30,
    "latitude" : 35.3840191,
    "longitude" : -119.0964605,
    "name" : "Original Roadhouse Grill - Bakersfield",
    "telephone" : "(661) 587-8039",
    "zone" : "CA - Bakersfield Kern"
  }, {
    "address" : "1931 Chester Ave\nBakersfield, CA 93301",
    "contact_name" : "Blake Lemmons",
    "container_size" : 100,
    "formattedAddress" : "1931 Chester Ave, Bakersfield, CA 93301",
    "frequency" : 30,
    "latitude" : 35.3769643,
    "longitude" : -119.0192554,
    "name" : "Stars",
    "telephone" : "(661) 325-1322",
    "zone" : "CA - Bakersfield Kern"
  }, {
    "address" : "1702 18th Street\nBakersfield, CA 93301",
    "contact_name" : "Blake Luecke",
    "container_size" : 275,
    "formattedAddress" : "1702 18th St, Bakersfield, CA 93301",
    "frequency" : 30,
    "latitude" : 35.3755839,
    "longitude" : -119.021527,
    "name" : "The Padre Hotel",
    "telephone" : "(661) 427-4900",
    "zone" : "CA - Bakersfield Kern"
  }, {
    "address" : "10520 West Stockdale Hwy\nBakersfield, CA 93311",
    "contact_name" : "Edward Sweeney",
    "container_size" : 150,
    "formattedAddress" : "10520 Stockdale Hwy, Bakersfield, CA 93311",
    "frequency" : 30,
    "latitude" : 35.3520364,
    "longitude" : -119.1192421,
    "name" : "Eureka Burger Bakersfield",
    "telephone" : "(661) 241-5999",
    "zone" : "CA - Bakersfield Kern"
  }, {
    "address" : "3610 Wible Road\nBakersfield, CA 93309",
    "contact_name" : "Kelsey Turner",
    "container_size" : 250,
    "formattedAddress" : "3610 Wible Rd, Bakersfield, CA 93309",
    "frequency" : 30,
    "latitude" : 35.3218201,
    "longitude" : -119.0382361,
    "name" : "Mossman's Southwest Lanes",
    "telephone" : "(661) 832-5130",
    "zone" : "CA - Bakersfield Kern"
  }, {
    "address" : "4259 Oceanside Blvd. #104\nOceanside, CA 92056",
    "contact_name" : "Carlos Quichocho",
    "container_size" : 89,
    "formattedAddress" : "4259 Oceanside Blvd #104, Oceanside, CA 92056",
    "frequency" : 30,
    "latitude" : 33.2085058,
    "longitude" : -117.2803698,
    "name" : "Guahan Grill",
    "telephone" : "(760) 458-8625",
    "zone" : "CA - Oceanside Encinitas"
  }, {
    "address" : "2501 El Camino Real\nSuite 240\nCarlsbad, CA 92008",
    "contact_name" : "Haley Colvin",
    "container_size" : 30,
    "formattedAddress" : "2501 El Camino Real #240, Carlsbad, CA 92008",
    "frequency" : 14,
    "latitude" : 33.178569,
    "longitude" : -117.329036,
    "name" : "Luna Grill - Carlsbad Westfield",
    "telephone" : "(760) 485-5819",
    "zone" : "CA - Oceanside Encinitas"
  }, {
    "address" : "2681 Gateway Road\nsuite 101\nCarlsbad, CA 92009",
    "contact_name" : "",
    "container_size" : 30,
    "formattedAddress" : "2681 Gateway Rd #101, Carlsbad, CA 92009",
    "frequency" : 14,
    "latitude" : 33.1274036,
    "longitude" : -117.2526507,
    "name" : "Luna Grill - Carlsbad",
    "telephone" : "(760) 438-5862",
    "zone" : "CA - Oceanside Encinitas"
  }, {
    "address" : "7615 Via Campanile\nSuite# 112\nCarlsbad, CA 92009",
    "contact_name" : "Luke Antunes",
    "container_size" : 30,
    "formattedAddress" : "7615 Via Campanile #112, Carlsbad, CA 92009",
    "frequency" : 14,
    "latitude" : 33.08221760000001,
    "longitude" : -117.2335041,
    "name" : "Luna Grill - La Costa",
    "telephone" : "(619) 339-1366",
    "zone" : "CA - Oceanside Encinitas"
  }, {
    "address" : "4141 Oceanside Blvd\nOceanside, CA 92056",
    "contact_name" : "",
    "container_size" : 84,
    "formattedAddress" : "4141 Oceanside Blvd, Oceanside, CA 92056",
    "frequency" : 14,
    "latitude" : 33.2061266,
    "longitude" : -117.2875087,
    "name" : "Shakey's / Oceanside",
    "telephone" : "(760) 940-4243",
    "zone" : "CA - Oceanside Encinitas"
  }, {
    "address" : "2708 Loker Ave West\nSuite 102\nCarlsbad, CA 92010",
    "contact_name" : "",
    "container_size" : 40,
    "formattedAddress" : "2708 Loker Ave W #102, Carlsbad, CA 92010",
    "frequency" : 14,
    "latitude" : 33.1310524,
    "longitude" : -117.2605687,
    "name" : "Los Primos #20 - Carlsbad",
    "telephone" : "(760) 431-0202",
    "zone" : "CA - Oceanside Encinitas"
  }, {
    "address" : "919 Lomas Santa Fe\nSolana Beach, CA 92075",
    "contact_name" : "Luis Tadares",
    "container_size" : 30,
    "formattedAddress" : "919 Lomas Santa Fe Dr, Solana Beach, CA 92075",
    "frequency" : 14,
    "latitude" : 32.9957265,
    "longitude" : -117.2553325,
    "name" : "Los Primos #33 - Solana Beach",
    "telephone" : "(858) 792-8226",
    "zone" : "CA - Oceanside Encinitas"
  }, {
    "address" : "1440 S. Melrose Dr\nOceanside, CA 92056",
    "contact_name" : "",
    "container_size" : 50,
    "formattedAddress" : "1440 S Melrose Dr, Oceanside, CA 92056",
    "frequency" : 30,
    "latitude" : 33.172432,
    "longitude" : -117.251445,
    "name" : "Aegis at Shadowridge",
    "telephone" : "",
    "zone" : "CA - Oceanside Encinitas"
  }, {
    "address" : "711 Mission Ave.\nOceanside, CA 92054",
    "contact_name" : "Adam Griffin",
    "container_size" : 89,
    "formattedAddress" : "711 Mission Ave, Oceanside, CA 92054",
    "frequency" : 14,
    "latitude" : 33.1967729,
    "longitude" : -117.3774404,
    "name" : "Mission Ave Bar and Grill",
    "telephone" : "(760) 889-9650",
    "zone" : "CA - Oceanside Encinitas"
  }, {
    "address" : "276 A Harbor Drive South\nOceanside, CA 9205",
    "contact_name" : "Terry Cross",
    "container_size" : 40,
    "formattedAddress" : "276 Harbor Dr, Oceanside, CA 92054",
    "frequency" : 14,
    "latitude" : 33.204893,
    "longitude" : -117.389198,
    "name" : "Harbor Fish & Chips",
    "telephone" : "(760) 722-4977",
    "zone" : "CA - Oceanside Encinitas"
  }, {
    "address" : "3333 Manchester Drive\nCardiff, CA 92007",
    "contact_name" : "",
    "container_size" : 100,
    "formattedAddress" : "3333 Manchester Ave, Cardiff, CA 92007",
    "frequency" : 30,
    "latitude" : 33.0174318,
    "longitude" : -117.2584082,
    "name" : "Mira Costa College - San Elijo",
    "telephone" : "(760) 944-4449",
    "zone" : "CA - Oceanside Encinitas"
  }, {
    "address" : "1 Barnard Drive\nOceanside, CA 92056",
    "contact_name" : "",
    "container_size" : 100,
    "formattedAddress" : "1 Barnard Dr, Oceanside, CA 92056",
    "frequency" : 30,
    "latitude" : 33.1900417,
    "longitude" : -117.3021629,
    "name" : "Mira Costa College",
    "telephone" : "(760) 757-2121",
    "zone" : "CA - Oceanside Encinitas"
  }, {
    "address" : "1905 El Cajon Blvd\nSan Diego, CA 92104",
    "contact_name" : "Kai",
    "container_size" : 40,
    "formattedAddress" : "1905 El Cajon Blvd, San Diego, CA 92104",
    "frequency" : 14,
    "latitude" : 32.7548447,
    "longitude" : -117.1446519,
    "name" : "Loving Hut",
    "telephone" : "(619) 683-9490",
    "zone" : "CA San Diego Central"
  }, {
    "address" : "2825 5th Ave\nSan Diego, CA 92103",
    "contact_name" : "",
    "container_size" : 30,
    "formattedAddress" : "2825 Fifth Ave, San Diego, CA 92103",
    "frequency" : 14,
    "latitude" : 32.7347954,
    "longitude" : -117.1600521,
    "name" : "HornBlower",
    "telephone" : "(619) 686-8700",
    "zone" : "CA San Diego Central"
  }, {
    "address" : "618 5th Ave\nSan Diego, CA 92101",
    "contact_name" : "",
    "container_size" : 30,
    "formattedAddress" : "618 Fifth Ave, San Diego, CA 92101",
    "frequency" : 14,
    "latitude" : 32.7119331,
    "longitude" : -117.1604128,
    "name" : "Henry's Pub",
    "telephone" : "",
    "zone" : "CA San Diego Central"
  }, {
    "address" : "558 4th Ave\nSan Diego, CA 92101",
    "contact_name" : "",
    "container_size" : 30,
    "formattedAddress" : "558 Fourth Ave, San Diego, CA 92101",
    "frequency" : 14,
    "latitude" : 32.7110352,
    "longitude" : -117.1613333,
    "name" : "Las Hadas",
    "telephone" : "(619) 232-1720",
    "zone" : "CA San Diego Central"
  }, {
    "address" : "2885 EL Cajon Blvd,\n#C\nSan Diego, CA 92104",
    "contact_name" : "",
    "container_size" : 30,
    "formattedAddress" : "2885 El Cajon Blvd, San Diego, CA 92104",
    "frequency" : 14,
    "latitude" : 32.7548336,
    "longitude" : -117.1317355,
    "name" : "City Dragon",
    "telephone" : "(619) 280-2255",
    "zone" : "CA San Diego Central"
  }, {
    "address" : "2200 Pacific Highway\nSan Diego, CA 92101",
    "contact_name" : "John Gee\nGM",
    "container_size" : 115,
    "formattedAddress" : "2200 Pacific Hwy, San Diego, CA 92101",
    "frequency" : 30,
    "latitude" : 32.7265304,
    "longitude" : -117.1728634,
    "name" : "CulinArt - Solar Turbines inc - San Diego 1",
    "telephone" : "(619) 544-5612",
    "zone" : "CA San Diego Central"
  }, {
    "address" : "4600 Air Way\nSan Diego, CA 92102",
    "contact_name" : "Charles Weeks",
    "container_size" : 50,
    "formattedAddress" : "4600 Air Way, San Diego, CA 92102",
    "frequency" : 30,
    "latitude" : 32.71992090000001,
    "longitude" : -117.098159,
    "name" : "CulinArt - McGraw Hill -SD",
    "telephone" : "(619) 237-6280",
    "zone" : "CA San Diego Central"
  }, {
    "address" : "207 5th Ave\nSan Diego, CA 92101",
    "contact_name" : "Arie",
    "container_size" : 275,
    "formattedAddress" : "207 Fifth Ave, San Diego, CA 92101",
    "frequency" : 14,
    "latitude" : 32.7075604,
    "longitude" : -117.1599101,
    "name" : "Hard Rock Hotel San Diego",
    "telephone" : "(619) 702-3000",
    "zone" : "CA San Diego Central"
  }, {
    "address" : "1125 6th Ave\nSan Diego, CA 92101",
    "contact_name" : "",
    "container_size" : 30,
    "formattedAddress" : "1125 Sixth Ave, San Diego, CA 92101",
    "frequency" : 14,
    "latitude" : 32.7171752,
    "longitude" : -117.1589797,
    "name" : "Stout Public House",
    "telephone" : "",
    "zone" : "CA San Diego Central"
  }, {
    "address" : "3900 5th Ave Ste 2\nSan Diego, CA 92103",
    "contact_name" : "",
    "container_size" : 15,
    "formattedAddress" : "3900 Fifth Ave #2, San Diego, CA 92103",
    "frequency" : 14,
    "latitude" : 32.7485686,
    "longitude" : -117.1607796,
    "name" : "Saigon On 5th",
    "telephone" : "",
    "zone" : "CA San Diego Central"
  }, {
    "address" : "1901 El Cajon Blvd\nSan Diego, CA 92104",
    "contact_name" : "",
    "container_size" : 60,
    "formattedAddress" : "1901 El Cajon Blvd, San Diego, CA 92104",
    "frequency" : 14,
    "latitude" : 32.7548377,
    "longitude" : -117.1447653,
    "name" : "Wingstop North Park",
    "telephone" : "",
    "zone" : "CA San Diego Central"
  }, {
    "address" : "954 5th Ave\nSan Diego, CA 92101",
    "contact_name" : "",
    "container_size" : 30,
    "formattedAddress" : "954 Fifth Ave, San Diego, CA 92101",
    "frequency" : 14,
    "latitude" : 32.7153792,
    "longitude" : -117.1603387,
    "name" : "The Hopping Pig",
    "telephone" : "(619) 546-6424",
    "zone" : "CA San Diego Central"
  }, {
    "address" : "1360 Orange Ave.\nCoronado, CA 92118-2917",
    "contact_name" : "Oyuki Palma Abarca",
    "container_size" : 40,
    "formattedAddress" : "1360 Orange Ave, Coronado, CA 92118",
    "frequency" : 30,
    "latitude" : 32.6825191,
    "longitude" : -117.1786834,
    "name" : "La Salsa - Coronado #19",
    "telephone" : "(619) 435 7778",
    "zone" : "CA San Diego Central"
  }, {
    "address" : "110 W. Broadway\nSan Diego, CA 92101",
    "contact_name" : "Michael Antoci",
    "container_size" : 40,
    "formattedAddress" : "110 W Broadway, San Diego, CA 92101",
    "frequency" : 14,
    "latitude" : 32.71615,
    "longitude" : -117.164424,
    "name" : "Tender Greens - Downtown SD",
    "telephone" : "(619) 795-2353",
    "zone" : "CA San Diego Central"
  }, {
    "address" : "350 University Ave\nSan Diego, CA 92103",
    "contact_name" : "Annette",
    "container_size" : 40,
    "formattedAddress" : "350 University Ave, San Diego, CA 92103",
    "frequency" : 14,
    "latitude" : 32.748494,
    "longitude" : -117.1618961,
    "name" : "Luna Grill - Hillcrest",
    "telephone" : "(619) 296-5862",
    "zone" : "CA San Diego Central"
  }, {
    "address" : "2885 El Cajon Blvd\nSan Diego, CA 92104",
    "contact_name" : "",
    "container_size" : 89,
    "formattedAddress" : "2885 El Cajon Blvd, San Diego, CA 92104",
    "frequency" : 14,
    "latitude" : 32.7548336,
    "longitude" : -117.1317355,
    "name" : "Ray's Mexican Restaurant",
    "telephone" : "(619) 280-4011",
    "zone" : "CA San Diego Central"
  }, {
    "address" : "3537 5th Ave\nSan Diego, CA 92103",
    "contact_name" : "",
    "container_size" : 15,
    "formattedAddress" : "3537 Fifth Ave, San Diego, CA 92103",
    "frequency" : 14,
    "latitude" : 32.7422634,
    "longitude" : -117.1601327,
    "name" : "Nunu's",
    "telephone" : "(619) 295-2878",
    "zone" : "CA San Diego Central"
  }, {
    "address" : "823 5th Ave\nSan Diego, CA 92101",
    "contact_name" : "",
    "container_size" : 30,
    "formattedAddress" : "823 Fifth Ave, San Diego, CA 92101",
    "frequency" : 14,
    "latitude" : 32.713972,
    "longitude" : -117.1599032,
    "name" : "Doner Mediterranean Grill",
    "telephone" : "(619) 228-9997",
    "zone" : "CA San Diego Central"
  }, {
    "address" : "2322 El Cajon Blvd\nSan Diego, CA 92104",
    "contact_name" : "Alvin Owino",
    "container_size" : 60,
    "formattedAddress" : "2322 El Cajon Blvd, San Diego, CA 92104",
    "frequency" : 14,
    "latitude" : 32.7555692,
    "longitude" : -117.1395523,
    "name" : "Flavors of East Africa",
    "telephone" : "(619) 955-8778",
    "zone" : "CA San Diego Central"
  }, {
    "address" : "9500 Gilman Drive\nLa Jolla, CA 92093",
    "contact_name" : "Ed Koengeter",
    "container_size" : 150,
    "formattedAddress" : "9500 Gilman Dr, La Jolla, CA 92093",
    "frequency" : 30,
    "latitude" : 32.8753618,
    "longitude" : -117.2358622,
    "name" : "Faculty Club - UCSD",
    "telephone" : "(858) 534-0876",
    "zone" : "CA San Diego Central"
  }, {
    "address" : "10920 Technology Place\nSan Diego, CA 92127",
    "contact_name" : "",
    "container_size" : 150,
    "formattedAddress" : "10920 Technology Pl, San Diego, CA 92127",
    "frequency" : 30,
    "latitude" : 33.0098475,
    "longitude" : -117.0940265,
    "name" : "CulinArt-BAE Systems",
    "telephone" : "(858) 592-5500",
    "zone" : "CA - Escondido"
  }, {
    "address" : "100 Holland Glen\nEscondido, CA 92026",
    "contact_name" : "",
    "container_size" : 115,
    "formattedAddress" : "100 Holland Glen, Escondido, CA 92026",
    "frequency" : 30,
    "latitude" : 33.1578377,
    "longitude" : -117.093489,
    "name" : "Meadowbrook Village",
    "telephone" : "(760) 746-2500",
    "zone" : "CA - Escondido"
  }, {
    "address" : "14170 Kirkham Way\nPoway, CA 92064",
    "contact_name" : "Saranya Rafi",
    "container_size" : 50,
    "formattedAddress" : "14170 Kirkham Way, Poway, CA 92064",
    "frequency" : 30,
    "latitude" : 32.937256,
    "longitude" : -117.022993,
    "name" : "CulinArt - General Atomics",
    "telephone" : "(858) 312-2491",
    "zone" : "CA - Escondido"
  }, {
    "address" : "801 S. Twin Oaks Valley Rd. Ste. 102\nSan Marcos, CA 92078",
    "contact_name" : "Steve",
    "container_size" : 84,
    "formattedAddress" : "801 S Twin Oaks Valley Rd #102, San Marcos, CA 92078",
    "frequency" : 14,
    "latitude" : 33.1231032,
    "longitude" : -117.1657626,
    "name" : "Los Primos #35 San Marcos",
    "telephone" : "(760) 805-3186",
    "zone" : "CA - Escondido"
  }, {
    "address" : "801 S Twin Oaks Valley Rd. #101\nSan Marcos, CA 92078",
    "contact_name" : "Rich Burton",
    "container_size" : 40,
    "formattedAddress" : "801 S Twin Oaks Valley Rd #101, San Marcos, CA 92078",
    "frequency" : 14,
    "latitude" : 33.1231032,
    "longitude" : -117.1657626,
    "name" : "Rakabeka Fresh Thai Kitchen",
    "telephone" : "(760) 798-4280",
    "zone" : "CA - Escondido"
  }, {
    "address" : "7525 Torrey Santa Fe Rd\nSan Diego, CA 92129",
    "contact_name" : "Michael Catalano",
    "container_size" : 150,
    "formattedAddress" : "7525 Torrey Santa Fe Rd, San Diego, CA 92129",
    "frequency" : 30,
    "latitude" : 32.956774,
    "longitude" : -117.158371,
    "name" : "CulinArt - Intuit - San Diego",
    "telephone" : "(858) 603-8265",
    "zone" : "CA - Escondido"
  }, {
    "address" : "1825 West Vista Way\n#A2\nVista, CA 92083",
    "contact_name" : "Mike McInerny",
    "container_size" : 115,
    "formattedAddress" : "1825 W Vista Way, Vista, CA 92083",
    "frequency" : 30,
    "latitude" : 33.1895727,
    "longitude" : -117.2806617,
    "name" : "Pizza on Tap",
    "telephone" : "(760) 630-4105",
    "zone" : "CA - Escondido"
  }, {
    "address" : "14170 Kirkham Way\nPoway, CA 92064",
    "contact_name" : "Saranya Rafi",
    "container_size" : 50,
    "formattedAddress" : "14170 Kirkham Way, Poway, CA 92064",
    "frequency" : 30,
    "latitude" : 32.937256,
    "longitude" : -117.022993,
    "name" : "CulinArt - General Atomics",
    "telephone" : "(858) 312-2491",
    "zone" : "CA - Escondido"
  }, {
    "address" : "1205 W San Marcos Blvd\nSan Marcos, CA 92078",
    "contact_name" : "Steve",
    "container_size" : 40,
    "formattedAddress" : "1205 W San Marcos Blvd, San Marcos, CA 92078",
    "frequency" : 14,
    "latitude" : 33.1326825,
    "longitude" : -117.1940414,
    "name" : "Los Primos San Marcos",
    "telephone" : "(760) 805-3186",
    "zone" : "CA - Escondido"
  }, {
    "address" : "1348 W Valley Pkwy\nEscondido, CA 92029",
    "contact_name" : "Claudia Estrada",
    "container_size" : 115,
    "formattedAddress" : "1348 W Valley Pkwy, Escondido, CA 92029",
    "frequency" : 30,
    "latitude" : 33.1122651,
    "longitude" : -117.1028932,
    "name" : "Los Primos #1 - Escondido",
    "telephone" : "(760) 735-8226",
    "zone" : "CA - Escondido"
  }, {
    "address" : "16621 Dove Canyon Rd\nSuite 111\nSan Diego, CA 92127",
    "contact_name" : "",
    "container_size" : 84,
    "formattedAddress" : "16621 Dove Canyon Rd #111, San Diego, CA 92127",
    "frequency" : 30,
    "latitude" : 33.0159627,
    "longitude" : -117.1107016,
    "name" : "Los Primos #11 - San Diego",
    "telephone" : "(858) 592-0960",
    "zone" : "CA - Escondido"
  }, {
    "address" : "505 W 5th Ave\nEscondido, CA 92025",
    "contact_name" : "Jesse",
    "container_size" : 80,
    "formattedAddress" : "505 W 5th Ave, Escondido, CA 92025",
    "frequency" : 14,
    "latitude" : 33.1149177,
    "longitude" : -117.0846187,
    "name" : "Tom's #23 - Escondido",
    "telephone" : "(760) 737-2377",
    "zone" : "CA - Escondido"
  }, {
    "address" : "14727 Pomerado Road\nPoway, CA 92064",
    "contact_name" : "",
    "container_size" : 40,
    "formattedAddress" : "14727 Pomerado Rd, Poway, CA 92064",
    "frequency" : 14,
    "latitude" : 32.9821646,
    "longitude" : -117.0622012,
    "name" : "Luna Grill - Poway",
    "telephone" : "(858) 679-5862",
    "zone" : "CA - Escondido"
  }, {
    "address" : "11154 Hwy 76\nPala, CA 92059",
    "contact_name" : "Camille",
    "container_size" : 1400,
    "formattedAddress" : "11154 CA-76, Pala, CA 92059",
    "frequency" : 10,
    "latitude" : 33.363365,
    "longitude" : -117.0847146,
    "name" : "Pala Casino",
    "telephone" : "(760) 510-2131",
    "zone" : "CA - Escondido"
  }, {
    "address" : "1205 W San Marcos Blvd\nSan Marcos, CA 92078",
    "contact_name" : "Jesse Ruiz",
    "container_size" : 150,
    "formattedAddress" : "1205 W San Marcos Blvd, San Marcos, CA 92078",
    "frequency" : 14,
    "latitude" : 33.1326825,
    "longitude" : -117.1940414,
    "name" : "Tom's #22 - San Marcos",
    "telephone" : "(760) 752-7774",
    "zone" : "CA - Escondido"
  }, {
    "address" : "16969 Mesamint Street\nSan Diego, CA 92127",
    "contact_name" : "John Gee",
    "container_size" : 50,
    "formattedAddress" : "16969 Mesamint St, San Diego, CA 92127",
    "frequency" : 30,
    "latitude" : 33.0161937,
    "longitude" : -117.1034675,
    "name" : "CulinArt - General Atomics EMS 86",
    "telephone" : "(858) 414-3318",
    "zone" : "CA - Escondido"
  }, {
    "address" : "13480 Evening Creek Drive N\nSan Diego, CA 92128",
    "contact_name" : "Ken",
    "container_size" : 115,
    "formattedAddress" : "13480 Evening Creek Dr N, San Diego, CA 92128",
    "frequency" : 30,
    "latitude" : 32.962155,
    "longitude" : -117.095031,
    "name" : "Ashford University - San Diego 2",
    "telephone" : "(858) 848-2060",
    "zone" : "CA - Escondido"
  }, {
    "address" : "7825 Highlands Village Pl. #E105\nSan Diego, CA 92129",
    "contact_name" : "Luke Antunes",
    "container_size" : 40,
    "formattedAddress" : "7825 Highlands Village Pl, San Diego, CA 92129",
    "frequency" : 14,
    "latitude" : 32.961682,
    "longitude" : -117.1551508,
    "name" : "Luna Grill - Carmel Valley",
    "telephone" : "(858) 566-5862",
    "zone" : "CA - Escondido"
  }, {
    "address" : "16710 Via Del Campo Ct\nSan Diego, CA 92127",
    "contact_name" : "MR KIN",
    "container_size" : 150,
    "formattedAddress" : "16710 Via Del Campo Ct, San Diego, CA 92127",
    "frequency" : 30,
    "latitude" : 33.0173162,
    "longitude" : -117.0966572,
    "name" : "Northrop Grumman 2",
    "telephone" : "(858) 775-8269",
    "zone" : "CA - Escondido"
  }, {
    "address" : "1110 Sycamore Ave\nVista, CA 92803",
    "contact_name" : "George",
    "container_size" : 150,
    "formattedAddress" : "1110 Sycamore Ave, Vista, CA 92081",
    "frequency" : 14,
    "latitude" : 33.1569957,
    "longitude" : -117.223187,
    "name" : "Tom's #24 - Vista",
    "telephone" : "619) 564-9157",
    "zone" : "CA - Escondido"
  }, {
    "address" : "4707 Executive Drive\nSan Diego, CA 92121",
    "contact_name" : "Gracie Parisi",
    "container_size" : 150,
    "formattedAddress" : "4707 Executive Dr, San Diego, CA 92121",
    "frequency" : 30,
    "latitude" : 32.8761829,
    "longitude" : -117.2048606,
    "name" : "CulinArt - LPL Financial",
    "telephone" : "(858) 909-6395",
    "zone" : "CA - Miramar"
  }, {
    "address" : "4545 La Jolla Village Dr.\nSan Diego, CA 92122",
    "contact_name" : "Michael Antoci",
    "container_size" : 40,
    "formattedAddress" : "4545 La Jolla Village Dr, San Diego, CA 92122",
    "frequency" : 14,
    "latitude" : 32.8706894,
    "longitude" : -117.2110084,
    "name" : "Tender Greens - UTC La Jolla",
    "telephone" : "(858) 455-9395",
    "zone" : "CA - Miramar"
  }, {
    "address" : "10455 Pomerado Road\nSan Diego, CA 92131",
    "contact_name" : "Amy Gysler",
    "container_size" : 150,
    "formattedAddress" : "10455 Pomerado Rd, San Diego, CA 92131",
    "frequency" : 30,
    "latitude" : 32.8994657,
    "longitude" : -117.0989422,
    "name" : "Alliant International University",
    "telephone" : "(858) 229-9725",
    "zone" : "CA - Miramar"
  }, {
    "address" : "10585 Scripps Poway Parkway Suite D\nSan Diego, CA 92131",
    "contact_name" : "Bijan Sami",
    "container_size" : 40,
    "formattedAddress" : "10585 Scripps Poway Pkwy d, San Diego, CA 92131",
    "frequency" : 14,
    "latitude" : 32.9356943,
    "longitude" : -117.099761,
    "name" : "Luna Grill - SD",
    "telephone" : "(858) 761-5055",
    "zone" : "CA - Miramar"
  }, {
    "address" : "10020 Pacific Mesa Blvd\nSan Diego, CA 92121",
    "contact_name" : "",
    "container_size" : 115,
    "formattedAddress" : "10020 Pacific Mesa Blvd, San Diego, CA 92121",
    "frequency" : 30,
    "latitude" : 32.8997035,
    "longitude" : -117.193237,
    "name" : "CareFusion Manufacturing",
    "telephone" : "",
    "zone" : "CA - Miramar"
  }, {
    "address" : "5200 Research Place\nSan Diego, CA 92122",
    "contact_name" : "Robert McFadden",
    "container_size" : 150,
    "formattedAddress" : "5200 Research Pl, San Diego, CA 92122",
    "frequency" : 30,
    "latitude" : 32.8678621,
    "longitude" : -117.1987403,
    "name" : "Biogen Idec - Nobel",
    "telephone" : "(858) 736-3821",
    "zone" : "CA - Miramar"
  }, {
    "address" : "9015 Mira Mesa Blvd\nSan Diego, CA 92126",
    "contact_name" : "Tiffany Hoang",
    "container_size" : 275,
    "formattedAddress" : "9015 Mira Mesa Blvd, San Diego, CA 92126",
    "frequency" : 14,
    "latitude" : 32.9145336,
    "longitude" : -117.1314459,
    "name" : "The Boiling Crab - San Diego",
    "telephone" : "(619) 841-8940",
    "zone" : "CA - Miramar"
  }, {
    "address" : "4175 Genesee Ave\nSuite 100\nSan Diego, CA 92117",
    "contact_name" : "Luke Antunes",
    "container_size" : 40,
    "formattedAddress" : "4175 Genesee Ave #100, San Diego, CA 92117",
    "frequency" : 14,
    "latitude" : 32.8188577,
    "longitude" : -117.1815586,
    "name" : "Luna Grill - Clairemont",
    "telephone" : "(619) 339-1366",
    "zone" : "CA - Miramar"
  }, {
    "address" : "7770 Regents Rd\nSuite 109\nSan Diego, CA 92122",
    "contact_name" : "Giovanni",
    "container_size" : 100,
    "formattedAddress" : "7770 Regents Rd #109, San Diego, CA 92122",
    "frequency" : 14,
    "latitude" : 32.8627496,
    "longitude" : -117.224335,
    "name" : "Los Primos #23 - San Diego",
    "telephone" : "(858) 638-0003",
    "zone" : "CA - Miramar"
  }, {
    "address" : "10010 North Torrey Pines Road\nLa Jolla, CA 92037",
    "contact_name" : "Mark Casper",
    "container_size" : 115,
    "formattedAddress" : "10010 N Torrey Pines Rd, La Jolla, CA 92037",
    "frequency" : 30,
    "latitude" : 32.887047,
    "longitude" : -117.244785,
    "name" : "CulinArt-Salk Institute - General Atomics",
    "telephone" : "(858) 453-4100 X 1161",
    "zone" : "CA - Miramar"
  }, {
    "address" : "5010 Wateridge Vista Dr.\nSan Diego, CA 92121",
    "contact_name" : "Dan Sargent",
    "container_size" : 115,
    "formattedAddress" : "5010 Wateridge Vista Dr, San Diego, CA 92121",
    "frequency" : 30,
    "latitude" : 32.8969281,
    "longitude" : -117.209346,
    "name" : "CulinArt & TD Ameritrade",
    "telephone" : "(858) 458-8072",
    "zone" : "CA - Miramar"
  }, {
    "address" : "12880 Carmel Country Road Ste D-100\nSan Diego, CA 92130",
    "contact_name" : "Ramon",
    "container_size" : 30,
    "formattedAddress" : "12880 Carmel Country Rd #100, San Diego, CA 92130",
    "frequency" : 30,
    "latitude" : 32.9544939,
    "longitude" : -117.2295058,
    "name" : "La Salsa - Carmel Country Rd.",
    "telephone" : "(858) 350 8307",
    "zone" : "CA - Miramar"
  }, {
    "address" : "4353 La Jolla Village Drive 92122\nSan Diego, CA 92122",
    "contact_name" : "",
    "container_size" : 150,
    "formattedAddress" : "4353 La Jolla Village Dr, San Diego, CA 92122",
    "frequency" : 14,
    "latitude" : 32.8729501,
    "longitude" : -117.2121703,
    "name" : "Eureka Burger UTC La Jolla",
    "telephone" : "(858) 210-3444",
    "zone" : "CA - Miramar"
  }, {
    "address" : "5651 Copley Dr\nSan Diego, CA 92111",
    "contact_name" : "Liz Jones",
    "container_size" : 150,
    "formattedAddress" : "5651 Copley Dr, San Diego, CA 92111",
    "frequency" : 45,
    "latitude" : 32.842245,
    "longitude" : -117.166795,
    "name" : "COX Communications- Copley",
    "telephone" : "(858) 715-4500",
    "zone" : "CA - El Cajon"
  }, {
    "address" : "5520 overland ave\nSan Diego, CA 92123",
    "contact_name" : "Javier Alanga",
    "container_size" : 115,
    "formattedAddress" : "5520 Overland Ave, San Diego, CA 92123",
    "frequency" : 30,
    "latitude" : 32.8342044,
    "longitude" : -117.1295534,
    "name" : "Culinary cafe",
    "telephone" : "(619) 248-4935",
    "zone" : "CA - El Cajon"
  }, {
    "address" : "5555 Grossmont Center Dr.\nLa Mesa, CA 91942",
    "contact_name" : "Mary Beth Schlichtholz",
    "container_size" : 150,
    "formattedAddress" : "5555 Grossmont Center Dr, La Mesa, CA 91942",
    "frequency" : 30,
    "latitude" : 32.7806823,
    "longitude" : -117.0064571,
    "name" : "Sharp Grossmont Hosp.",
    "telephone" : "(619) 740-6000",
    "zone" : "CA - El Cajon"
  }, {
    "address" : "2963 Jamacha Rd.\n#F\nEl Cajon, CA 92019",
    "contact_name" : "Bijan Sami",
    "container_size" : 40,
    "formattedAddress" : "2963 Jamacha Road, El Cajon, CA 92019",
    "frequency" : 30,
    "latitude" : 32.7377473,
    "longitude" : -116.9397803,
    "name" : "Luna Grill - El Cajon",
    "telephone" : "(858) 450-1188",
    "zone" : "CA - El Cajon"
  }, {
    "address" : "9001 Spectrum Center Blvd\nSan Diego, CA 92123",
    "contact_name" : "",
    "container_size" : 115,
    "formattedAddress" : "9001 Spectrum Center Blvd, San Diego, CA 92123",
    "frequency" : 30,
    "latitude" : 32.8256331,
    "longitude" : -117.1342029,
    "name" : "ResMed Corp",
    "telephone" : "",
    "zone" : "CA - El Cajon"
  }, {
    "address" : "9211 Clairemont Mesa Blvd #106\nSan Diego, CA 92123",
    "contact_name" : "Claudia Martinez",
    "container_size" : 84,
    "formattedAddress" : "9211 Clairemont Mesa Blvd #106, San Diego, CA 92123",
    "frequency" : 30,
    "latitude" : 32.831105,
    "longitude" : -117.1304534,
    "name" : "Los Primos #? (San Diego)",
    "telephone" : "(858) 560-8226",
    "zone" : "CA - El Cajon"
  }, {
    "address" : "7343 Jackson Drive\nSan Diego, CA 92120",
    "contact_name" : "",
    "container_size" : 275,
    "formattedAddress" : "7343 Jackson Dr, San Diego, CA 92119",
    "frequency" : 14,
    "latitude" : 32.8020262,
    "longitude" : -117.0430155,
    "name" : "Los Primos #28 - San Diego",
    "telephone" : "(619) 698-8226",
    "zone" : "CA - El Cajon"
  }, {
    "address" : "4200 Ruffin Rd\nSan Diego, CA 92123",
    "contact_name" : "Jose Santiago",
    "container_size" : 115,
    "formattedAddress" : "4200 Ruffin Rd, San Diego, CA 92123",
    "frequency" : 30,
    "latitude" : 32.817283,
    "longitude" : -117.12865,
    "name" : "CulinArt - Solar Turbines inc - San Diego 2",
    "telephone" : "(858) 694-6059",
    "zone" : "CA - El Cajon"
  }, {
    "address" : "5500 Grossmont Center Dr\n# A-1\nLa Mesa, CA 91942",
    "contact_name" : "Chin",
    "container_size" : 150,
    "formattedAddress" : "5500 Grossmont Center Dr #1, La Mesa, CA 91942",
    "frequency" : 30,
    "latitude" : 32.7779529,
    "longitude" : -117.007578,
    "name" : "Shakey's - La Mesa",
    "telephone" : "(619) 463-0700",
    "zone" : "CA - El Cajon"
  }, {
    "address" : "2322 Proctor Valley Rd\nSte D-102\nChula Vista, CA 91914",
    "contact_name" : "",
    "container_size" : 275,
    "formattedAddress" : "2322 Proctor Valley Rd #102, Chula Vista, CA 91914",
    "frequency" : 14,
    "latitude" : 32.6615547,
    "longitude" : -116.970339,
    "name" : "Los Primos #22 - Chula Vista",
    "telephone" : "(619) 482-4411",
    "zone" : "CA - Chula Vista"
  }, {
    "address" : "555 Broadway\nChula Vista, CA 91911",
    "contact_name" : "Connie",
    "container_size" : 275,
    "formattedAddress" : "555 Broadway, Chula Vista, CA 91910",
    "frequency" : 30,
    "latitude" : 32.6301255,
    "longitude" : -117.0876526,
    "name" : "Shakey's Chula Vista",
    "telephone" : "(619) 425-0211",
    "zone" : "CA - Chula Vista"
  }, {
    "address" : "872 Eastlake Parkway\nSuite 411\nChula Vista, CA 91914",
    "contact_name" : "Claudia Martinez",
    "container_size" : 40,
    "formattedAddress" : "872 Eastlake Pkwy #411, Chula Vista, CA 91914",
    "frequency" : 14,
    "latitude" : 32.6526259,
    "longitude" : -116.9693871,
    "name" : "Los Primos #25 - Chula Vista",
    "telephone" : "(619) 591-5921",
    "zone" : "CA - Chula Vista"
  }, {
    "address" : "2275 Otay Lakes Rd\n# 119\nChula Vista, CA 91915",
    "contact_name" : "Carlos Ramirez",
    "container_size" : 30,
    "formattedAddress" : "2275 Otay Lakes Rd #119, Chula Vista, CA 91915",
    "frequency" : 14,
    "latitude" : 32.647986,
    "longitude" : -116.9671615,
    "name" : "Luna Grill - Chula Vista",
    "telephone" : "(619) 656-5862",
    "zone" : "CA - Chula Vista"
  }, {
    "address" : "5159 Federal Blvd\nSan Diego, CA 92105",
    "contact_name" : "",
    "container_size" : 150,
    "formattedAddress" : "5159 Federal Blvd, San Diego, CA 92105",
    "frequency" : 45,
    "latitude" : 32.720459,
    "longitude" : -117.08258,
    "name" : "COX Communications - Federal",
    "telephone" : "(619) 262-1122",
    "zone" : "CA - San Diego East"
  }, {
    "address" : "2091 Shelter Island Dr\nSan Diego, CA 92106",
    "contact_name" : "",
    "container_size" : 50,
    "formattedAddress" : "2091 Shelter Island Dr, San Diego, CA 92106",
    "frequency" : 30,
    "latitude" : 32.7151367,
    "longitude" : -117.225802,
    "name" : "Silver Gate Yacht Club",
    "telephone" : "(619) 222-1214",
    "zone" : "CA Point Loma"
  }, {
    "address" : "2400 Historic Decatur Rd\nSan Diego, CA 92106",
    "contact_name" : "",
    "container_size" : 50,
    "formattedAddress" : "2400 Historic Decatur Rd, San Diego, CA 92106",
    "frequency" : 14,
    "latitude" : 32.7355141,
    "longitude" : -117.216016,
    "name" : "Luna Grill-San Diego 4",
    "telephone" : "(619) 224-5862",
    "zone" : "CA Point Loma"
  }, {
    "address" : "2556 Laning Rd\nSte B101\nSan Diego, CA 92106",
    "contact_name" : "Elvira Sanchez",
    "container_size" : 73,
    "formattedAddress" : "2556 Laning Rd b101, San Diego, CA 92106",
    "frequency" : 14,
    "latitude" : 32.7280807,
    "longitude" : -117.2176932,
    "name" : "Los Primos #21 - San Diego",
    "telephone" : "(619) 224-8226",
    "zone" : "CA Point Loma"
  }, {
    "address" : "2820 Lytton St\nSan Diego, CA 92110",
    "contact_name" : "",
    "container_size" : 275,
    "formattedAddress" : "2820 Lytton St, San Diego, CA 92110",
    "frequency" : 14,
    "latitude" : 32.7435881,
    "longitude" : -117.2106512,
    "name" : "The Hole",
    "telephone" : "",
    "zone" : "CA - Mission Valley"
  }, {
    "address" : "1640 Camino Del Rio N\nSuite FS-7\nSan Diego, CA 92108",
    "contact_name" : "John Metzinger",
    "container_size" : 40,
    "formattedAddress" : "San Diego, CA 92108",
    "frequency" : 30,
    "latitude" : 32.7742488,
    "longitude" : -117.1411815,
    "name" : "Tender Greens - Mission Valley",
    "telephone" : "(619) 296-6375",
    "zone" : "CA - Mission Valley"
  }, {
    "address" : "4200 Taylor St\nSan Diego, CA 92108",
    "contact_name" : "John/Josh",
    "container_size" : 89,
    "formattedAddress" : "4200 Taylor St, San Diego, CA 92110",
    "frequency" : 30,
    "latitude" : 32.7582859,
    "longitude" : -117.1979278,
    "name" : "Hilton Garden In",
    "telephone" : "(619) 708-8875",
    "zone" : "CA - Mission Valley"
  }, {
    "address" : "8120 Hwy 111\nNiland, CA 92257",
    "contact_name" : "Ruben Hernandez Sr.",
    "container_size" : 115,
    "formattedAddress" : "8120 CA-111, Niland, CA 92257",
    "frequency" : 45,
    "latitude" : 33.2415639,
    "longitude" : -115.518595,
    "name" : "Buckshot Deli and Diner",
    "telephone" : "(760) 359-0595",
    "zone" : "CA - Salton-Brawley"
  }, {
    "address" : "32525 Golden Lantern #E\nDana Point, CA 92629",
    "contact_name" : "Luke Antunes",
    "container_size" : 40,
    "formattedAddress" : "32525 Street of the Golden Lantern, Dana Point, CA 92629",
    "frequency" : 21,
    "latitude" : 33.4909549,
    "longitude" : -117.6983089,
    "name" : "Luna Grill - Dana Pt.",
    "telephone" : "(619) 339-1366",
    "zone" : "CA - Orange - South"
  }, {
    "address" : "26792 Portola Pkwy\nFoothill Ranch, CA 92610",
    "contact_name" : "",
    "container_size" : 40,
    "formattedAddress" : "26792 Portola Pkwy, Foothill Ranch, CA 92610",
    "frequency" : 21,
    "latitude" : 33.6784421,
    "longitude" : -117.6635696,
    "name" : "Chick Fil A Foothill Ranch",
    "telephone" : "",
    "zone" : "CA - Orange - South"
  }, {
    "address" : "20651 Lake Forest Dr\nLake Forest, CA 92630",
    "contact_name" : "",
    "container_size" : 40,
    "formattedAddress" : "20651 Lake Forest Dr, Lake Forest, CA 92630",
    "frequency" : 21,
    "latitude" : 33.6626845,
    "longitude" : -117.6682165,
    "name" : "Wasabi Sushi",
    "telephone" : "(949) 454-0888",
    "zone" : "CA - Orange - South"
  }, {
    "address" : "28201 Crown Valley Pkwy\nLaguna Niguel, CA 92677",
    "contact_name" : "",
    "container_size" : 40,
    "formattedAddress" : "28201 Crown Valley Pkwy, Laguna Niguel, CA 92677",
    "frequency" : 21,
    "latitude" : 33.553712,
    "longitude" : -117.6857754,
    "name" : "Chick Fil A Laguna Niguel",
    "telephone" : "",
    "zone" : "CA - Orange - South"
  }, {
    "address" : "24155 Laguna Hills Mall\nLaguna Hills, CA 92653",
    "contact_name" : "",
    "container_size" : 40,
    "formattedAddress" : "24155 Laguna Hills Mall, Laguna Hills, CA 92653",
    "frequency" : 14,
    "latitude" : 33.6101539,
    "longitude" : -117.70724,
    "name" : "Kula Revolving Sushi Bar LH",
    "telephone" : "(949) 273-1080",
    "zone" : "CA - Orange - South"
  }, {
    "address" : "24354 Muirlands Blvd\nLake Forest, CA 92630",
    "contact_name" : "",
    "container_size" : 30,
    "formattedAddress" : "24354 Muirlands Blvd, Lake Forest, CA 92630",
    "frequency" : 21,
    "latitude" : 33.6283793,
    "longitude" : -117.704633,
    "name" : "Delicias Peruanas",
    "telephone" : "",
    "zone" : "CA - Orange - South"
  }, {
    "address" : "7560 Winnetka Ave\nWinnetka, CA 92630",
    "contact_name" : "Ricardo",
    "container_size" : 50,
    "formattedAddress" : "7560 Winnetka Ave, Winnetka, CA 91306",
    "frequency" : 21,
    "latitude" : 34.2077918,
    "longitude" : -118.5706031,
    "name" : "Diamante Azul",
    "telephone" : "",
    "zone" : "CA - Orange - South"
  }, {
    "address" : "638 Camino De Los Mares\nsuite 200 E\nSan Clemente, CA 92673",
    "contact_name" : "Joey",
    "container_size" : 40,
    "formattedAddress" : "638 Camino De Los Mares #200, San Clemente, CA 92673",
    "frequency" : 21,
    "latitude" : 33.4586246,
    "longitude" : -117.6517907,
    "name" : "Fratello's",
    "telephone" : "(949) 233-9933",
    "zone" : "CA - Orange - South"
  }, {
    "address" : "20562 Regency Ln\nLake Forest, CA 92630",
    "contact_name" : "",
    "container_size" : 30,
    "formattedAddress" : "20562 Regency Ln, Lake Forest, CA 92630",
    "frequency" : 21,
    "latitude" : 33.664157,
    "longitude" : -117.6649972,
    "name" : "New Shanghai Restaurant",
    "telephone" : "(949) 830-1122",
    "zone" : "CA - Orange - South"
  }, {
    "address" : "26612 Towne Centre Drive\n# B\nFoothill Ranch, CA 92610",
    "contact_name" : "Hao",
    "container_size" : 84,
    "formattedAddress" : "26612 Towne Centre Dr, Foothill Ranch, CA 92610",
    "frequency" : 14,
    "latitude" : 33.6759044,
    "longitude" : -117.6679739,
    "name" : "Maison de Pho",
    "telephone" : "(949) 586-4841",
    "zone" : "CA - Orange - South"
  }, {
    "address" : "22722 Lambert St\nLake Forest, CA 92630",
    "contact_name" : "Mary Leyva",
    "container_size" : 115,
    "formattedAddress" : "22722 Lambert St, Lake Forest, CA 92630",
    "frequency" : 21,
    "latitude" : 33.6329667,
    "longitude" : -117.7126015,
    "name" : "Philly's Best - Lake Forest",
    "telephone" : "(949) 466-9445",
    "zone" : "CA - Orange - South"
  }, {
    "address" : "26861 Aliso Creek Rd\nAliso Viejo, CA 92656",
    "contact_name" : "philli",
    "container_size" : 40,
    "formattedAddress" : "26861 Aliso Creek Rd, Aliso Viejo, CA 92656",
    "frequency" : 14,
    "latitude" : 33.5719145,
    "longitude" : -117.7239756,
    "name" : "Chick Fil A Aliso Viejo",
    "telephone" : "(949) 425-1685",
    "zone" : "CA - Orange - South"
  }, {
    "address" : "26921 Aliso Creek Rd.\nSte E\nAliso Viejo, CA 92656",
    "contact_name" : "Bijan Sami",
    "container_size" : 30,
    "formattedAddress" : "26921 Aliso Creek Rd e, Aliso Viejo, CA 92656",
    "frequency" : 14,
    "latitude" : 33.5710371,
    "longitude" : -117.7246914,
    "name" : "Luna Grill - Aliso #14",
    "telephone" : "(858) 450-1188",
    "zone" : "CA - Orange - South"
  }, {
    "address" : "22722 Lambert St\n# 1704\nLake Forest, CA 92630",
    "contact_name" : "Paul",
    "container_size" : 30,
    "formattedAddress" : "22722 Lambert St #1704, Lake Forest, CA 92630",
    "frequency" : 21,
    "latitude" : 33.6329667,
    "longitude" : -117.7126015,
    "name" : "TastyThai",
    "telephone" : "(949) 461-7888",
    "zone" : "CA - Orange - South"
  }, {
    "address" : "23625 El Toro Road\nLake Forest, CA 92630",
    "contact_name" : "Bijan Sami",
    "container_size" : 100,
    "formattedAddress" : "23625 El Toro Rd, Lake Forest, CA 92630",
    "frequency" : 21,
    "latitude" : 33.6191632,
    "longitude" : -117.7027624,
    "name" : "Luna Grill-Lake Forest",
    "telephone" : "(949) 770-5862",
    "zone" : "CA - Orange - South"
  }, {
    "address" : "20671 Lake Forest Dr.\nLake Forest, CA 92630",
    "contact_name" : "Tony Ortega",
    "container_size" : 30,
    "formattedAddress" : "20671 Lake Forest Dr, Lake Forest, CA 92630",
    "frequency" : 14,
    "latitude" : 33.6622573,
    "longitude" : -117.6679111,
    "name" : "Baja Fresh - Lake Forest #97",
    "telephone" : "(714) 296 0643",
    "zone" : "CA - Orange - South"
  }, {
    "address" : "30231 Golden Lantern\nSuite F\nLaguna Niguel, CA 92677",
    "contact_name" : "Carmelo Luna",
    "container_size" : 30,
    "formattedAddress" : "30231 Street of the Golden Lantern f, Laguna Niguel, CA 92677",
    "frequency" : 14,
    "latitude" : 33.524544,
    "longitude" : -117.6877377,
    "name" : "Baja Fresh - Laguna Niguel #9",
    "telephone" : "(949) 249 0488",
    "zone" : "CA - Orange - South"
  }, {
    "address" : "26548 Moulton Parkway\nSuite M\nLaguna Hills, CA 92653",
    "contact_name" : "Jesus Guzman",
    "container_size" : 30,
    "formattedAddress" : "26548 Moulton Pkwy m, Laguna Hills, CA 92653",
    "frequency" : 14,
    "latitude" : 33.5777421,
    "longitude" : -117.7008585,
    "name" : "Baja Fresh - Laguna Hills #43",
    "telephone" : "(949) 360 4222",
    "zone" : "CA - Orange - South"
  }, {
    "address" : "979 Avenida Pico #A\nSan Clemente, CA 92672",
    "contact_name" : "Luis Guzman",
    "container_size" : 30,
    "formattedAddress" : "979 Avenida Pico, San Clemente, CA 92673",
    "frequency" : 14,
    "latitude" : 33.456134,
    "longitude" : -117.604267,
    "name" : "Baja Fresh - San Clemente #178",
    "telephone" : "(714) 308 0286",
    "zone" : "CA - Orange - South"
  }, {
    "address" : "27620 Marguerite Pkwy\nSuite C\nMission Viejo, CA 92692",
    "contact_name" : "Faustino Pineda",
    "container_size" : 30,
    "formattedAddress" : "27620 Marguerite Pkwy c, Mission Viejo, CA 92692",
    "frequency" : 14,
    "latitude" : 33.5620657,
    "longitude" : -117.6571899,
    "name" : "Baja Fresh - Mission Viejo - Crown Valley #220",
    "telephone" : "(949) 347 9033",
    "zone" : "CA - Orange - South"
  }, {
    "address" : "24022 Alicia Parkway\nSte E\nMission Viejo, CA 92691",
    "contact_name" : "Guille Marquez",
    "container_size" : 30,
    "formattedAddress" : "24022 Alicia Pkwy e, Mission Viejo, CA 92691",
    "frequency" : 14,
    "latitude" : 33.6134798,
    "longitude" : -117.6796659,
    "name" : "Baja Fresh - Mission Viejo #293",
    "telephone" : "",
    "zone" : "CA - Orange - South"
  }, {
    "address" : "21612 Plano Trabuco Road\nRancho Santa Margarita, CA 92688",
    "contact_name" : "Jose Rodriquez",
    "container_size" : 150,
    "formattedAddress" : "21612 Plano Trabuco Rd, Rancho Santa Margarita, CA 92688",
    "frequency" : 21,
    "latitude" : 33.6461173,
    "longitude" : -117.577622,
    "name" : "Los Primos #8 - Rancho Santa Margarita",
    "telephone" : "(949) 858-0311",
    "zone" : "CA - Orange - South"
  }, {
    "address" : "31371 Niguel Rd\nLaguna Niguel, CA 92677",
    "contact_name" : "",
    "container_size" : 40,
    "formattedAddress" : "31371 Niguel Rd, Laguna Niguel, CA 92677",
    "frequency" : 14,
    "latitude" : 33.5067232,
    "longitude" : -117.7083753,
    "name" : "Fratello's Italian Family",
    "telephone" : "(949) 661-1250",
    "zone" : "CA - Orange - South"
  }, {
    "address" : "26721 Rancho Parkway\nLake Forest, CA 92630",
    "contact_name" : "",
    "container_size" : 150,
    "formattedAddress" : "26721 Rancho Pkwy, Lake Forest, CA 92630",
    "frequency" : 21,
    "latitude" : 33.673072,
    "longitude" : -117.6659235,
    "name" : "Los Primos #5 - Lake Forest",
    "telephone" : "(949) 581-6031",
    "zone" : "CA - Orange - South"
  }, {
    "address" : "26351 Junipero Serra Rd\nSan Juan Capistrano, CA 92675",
    "contact_name" : "John Gee",
    "container_size" : 50,
    "formattedAddress" : "26351 Junipero Serra Rd, San Juan Capistrano, CA 92675",
    "frequency" : 30,
    "latitude" : 33.5209848,
    "longitude" : -117.6682061,
    "name" : "CulinArt - Junipero Serra High School",
    "telephone" : "(949) 493-9018",
    "zone" : "CA - Orange - South"
  }, {
    "address" : "28181 Marguerite Parkway\n#22\nMission Viejo, CA 92692",
    "contact_name" : "Aki",
    "container_size" : 20,
    "formattedAddress" : "28181 Marguerite Pkwy #22, Mission Viejo, CA 92692",
    "frequency" : 14,
    "latitude" : 33.5535975,
    "longitude" : -117.670633,
    "name" : "Moo Moo Teriyaki Grill",
    "telephone" : "(714) 328-4849",
    "zone" : "CA - Orange - South"
  }, {
    "address" : "31105 Rancho Viejo Rd #C13\nSan Juan Capistrano, CA 92675",
    "contact_name" : "Omar",
    "container_size" : 40,
    "formattedAddress" : "31105 Rancho Viejo Rd, San Juan Capistrano, CA 92675",
    "frequency" : 14,
    "latitude" : 33.5075941,
    "longitude" : -117.6593706,
    "name" : "The Olives Branch",
    "telephone" : "(949) 373-5633",
    "zone" : "CA - Orange - South"
  }, {
    "address" : "28251 Marguerite Pkwy\nMission Viejo, CA 92692",
    "contact_name" : "Raj Syal",
    "container_size" : 150,
    "formattedAddress" : "28251 Marguerite Pkwy, Mission Viejo, CA 92692",
    "frequency" : 14,
    "latitude" : 33.5523919,
    "longitude" : -117.6714902,
    "name" : "Rockfire Grill",
    "telephone" : "(714) 727-5482",
    "zone" : "CA - Orange - South"
  }, {
    "address" : "638 Camino De Los Mares\nSuite F10\nSan Clemente, CA 92673",
    "contact_name" : "Tom Rinehart",
    "container_size" : 40,
    "formattedAddress" : "638 Camino De Los Mares, San Clemente, CA 92673",
    "frequency" : 14,
    "latitude" : 33.4586246,
    "longitude" : -117.6517907,
    "name" : "Philly's Best - San Clemente",
    "telephone" : "949) 489-3888",
    "zone" : "CA - Orange - South"
  }, {
    "address" : "27931 La Paz Rd\n# A\nLaguna Niguel, CA 92677",
    "contact_name" : "Francisco",
    "container_size" : 100,
    "formattedAddress" : "27931 La Paz Rd, Laguna Niguel, CA 92677",
    "frequency" : 21,
    "latitude" : 33.5561738,
    "longitude" : -117.7102377,
    "name" : "Pho The Bowl",
    "telephone" : "(949) 360-8027",
    "zone" : "CA - Orange - South"
  }, {
    "address" : "23972 Avenida De La Carlota\nLaguna Hills, CA 92653",
    "contact_name" : "",
    "container_size" : 150,
    "formattedAddress" : "23972 Avenida De La Carlota, Laguna Hills, CA 92653",
    "frequency" : 14,
    "latitude" : 33.6148594,
    "longitude" : -117.7090781,
    "name" : "Don Jose - Laguna Hills #603",
    "telephone" : "",
    "zone" : "CA - Orange - South"
  }, {
    "address" : "2400 West Coast Hwy, Newport Beach, CA 92663",
    "contact_name" : "",
    "container_size" : 84,
    "formattedAddress" : "2400 West Coast Hwy, Newport Beach, CA 92663",
    "frequency" : 21,
    "latitude" : 33.61965,
    "longitude" : -117.9210276,
    "name" : "Rockfire Grill",
    "telephone" : "(949) 650-0155",
    "zone" : "CA - Orange - South"
  }, {
    "address" : "23622 Rockfield Bld, Lake Forest, CA 92630",
    "contact_name" : "",
    "container_size" : 40,
    "formattedAddress" : "23622 Rockfield Blvd, Lake Forest, CA 92630",
    "frequency" : 14,
    "latitude" : 33.6299205,
    "longitude" : -117.7179523,
    "name" : "Dickeys-LF",
    "telephone" : "(949) 556-2074",
    "zone" : "CA - Orange - South"
  }, {
    "address" : "16103 Bolsa Chica St\nHuntington Beach, CA 92649",
    "contact_name" : "",
    "container_size" : 150,
    "formattedAddress" : "16103 Bolsa Chica St, Huntington Beach, CA 92649",
    "frequency" : 30,
    "latitude" : 33.7284075,
    "longitude" : -118.0420859,
    "name" : "Sea Siam",
    "telephone" : "(714) 846-8986",
    "zone" : "CA - Orange - North"
  }, {
    "address" : "4240 Katella Ave\nLos Alamitos, CA 90720",
    "contact_name" : "Gustavo Rivera",
    "container_size" : 40,
    "formattedAddress" : "4240 Katella Ave, Los Alamitos, CA 90720",
    "frequency" : 14,
    "latitude" : 33.8026999,
    "longitude" : -118.0586053,
    "name" : "Adalbertos - JS",
    "telephone" : "(562) 430-7770",
    "zone" : "CA - Orange - North"
  }, {
    "address" : "13876 Brookhurst St.\nGarden Grove, CA 92843",
    "contact_name" : "Thomas",
    "container_size" : 275,
    "formattedAddress" : "13876 Brookhurst St, Garden Grove, CA 92843",
    "frequency" : 7,
    "latitude" : 33.7613743,
    "longitude" : -117.9532345,
    "name" : "Boiling Crab- Garden Grove",
    "telephone" : "(626) 399-1207",
    "zone" : "CA - Orange - North"
  }, {
    "address" : "1647 E Imperial Hwy\nBrea, CA 92821",
    "contact_name" : "",
    "container_size" : 40,
    "formattedAddress" : "1647 E Imperial Hwy, Brea, CA 92821",
    "frequency" : 14,
    "latitude" : 33.9111355,
    "longitude" : -117.8806729,
    "name" : "Chick Fil A Brea",
    "telephone" : "",
    "zone" : "CA - Orange - North"
  }, {
    "address" : "3601 S Bristol St,\nSanta Ana, CA 92704",
    "contact_name" : "Nick Jones",
    "container_size" : 40,
    "formattedAddress" : "3601 S Bristol St, Santa Ana, CA 92704",
    "frequency" : 14,
    "latitude" : 33.6996752,
    "longitude" : -117.8850472,
    "name" : "Chick Fil A Santa Ana",
    "telephone" : "",
    "zone" : "CA - Orange - North"
  }, {
    "address" : "6428 Irvine Blvd\nIrvine, CA 92620",
    "contact_name" : "",
    "container_size" : 40,
    "formattedAddress" : "6428 Irvine Blvd, Irvine, CA 92620",
    "frequency" : 14,
    "latitude" : 33.6991429,
    "longitude" : -117.7400726,
    "name" : "Chick Fil A Woodbury Town Center",
    "telephone" : "",
    "zone" : "CA - Orange - North"
  }, {
    "address" : "112 E Commonwealth Ave\nFullerton, CA 92832",
    "contact_name" : "",
    "container_size" : 60,
    "formattedAddress" : "112 E Commonwealth Ave, Fullerton, CA 92832",
    "frequency" : 14,
    "latitude" : 33.8701888,
    "longitude" : -117.9235604,
    "name" : "Commonwealth Lounge Grill",
    "telephone" : "(714) 310-9290",
    "zone" : "CA - Orange - North"
  }, {
    "address" : "1801 W Imperial Hwy\nLa Habra, CA 90631",
    "contact_name" : "",
    "container_size" : 40,
    "formattedAddress" : "1801 W Imperial Hwy, La Habra, CA 90631",
    "frequency" : 21,
    "latitude" : 33.9177057,
    "longitude" : -117.965629,
    "name" : "Chick Fil A La Habra",
    "telephone" : "",
    "zone" : "CA - Orange - North"
  }, {
    "address" : "2525 Dupont Dr\nIrvine, CA 92612",
    "contact_name" : "Justin McGruder",
    "container_size" : 89,
    "formattedAddress" : "2525 Dupont Dr, Irvine, CA 92612",
    "frequency" : 45,
    "latitude" : 33.6718635,
    "longitude" : -117.8543514,
    "name" : "CulinArt - Allergan",
    "telephone" : "(714) 246-6907",
    "zone" : "CA - Orange - North"
  }, {
    "address" : "200 N Broadway\nSanta Ana, CA 92701",
    "contact_name" : "Jeff Jensesn",
    "container_size" : 40,
    "formattedAddress" : "200 N Broadway, Santa Ana, CA 92701",
    "frequency" : 21,
    "latitude" : 33.7464613,
    "longitude" : -117.869922,
    "name" : "C4 Deli",
    "telephone" : "(714) 263-1555",
    "zone" : "CA - Orange - North"
  }, {
    "address" : "9600 Graham St.\nCypress, CA 90630",
    "contact_name" : "Elizabeth Valdivia",
    "container_size" : 50,
    "formattedAddress" : "9600 Graham St, Cypress, CA 90630",
    "frequency" : 45,
    "latitude" : 33.823114,
    "longitude" : -118.03462,
    "name" : "Cypress Snack Bar",
    "telephone" : "714) 761-1540",
    "zone" : "CA - Orange - North"
  }, {
    "address" : "6278 Irvine Blvd\nIrvine, CA 92620",
    "contact_name" : "",
    "container_size" : 40,
    "formattedAddress" : "6278 Irvine Blvd, Irvine, CA 92620",
    "frequency" : 21,
    "latitude" : 33.6972797,
    "longitude" : -117.7432332,
    "name" : "Garbonzo Mediterranean Grill",
    "telephone" : "(949) 861-2891",
    "zone" : "CA - Orange - North"
  }, {
    "address" : "15435 Jeffrey rd\nIrvine, CA 92618",
    "contact_name" : "",
    "container_size" : 89,
    "formattedAddress" : "15435 Jeffrey Rd, Irvine, CA 92618",
    "frequency" : 21,
    "latitude" : 33.6810362,
    "longitude" : -117.7788754,
    "name" : "I - Tea Cafe",
    "telephone" : "(949) 551-4832",
    "zone" : "CA - Orange - North"
  }, {
    "address" : "1600 E St. Andrew Place\nSanta Ana, CA 92705",
    "contact_name" : "WULFARNO",
    "container_size" : 115,
    "formattedAddress" : "1600 E St Andrew Pl, Santa Ana, CA 92705",
    "frequency" : 45,
    "latitude" : 33.7220405,
    "longitude" : -117.8478267,
    "name" : "Ingram Micro Santa Ana",
    "telephone" : "(714) 382-3969",
    "zone" : "CA - Orange - North"
  }, {
    "address" : "7185 Lincoln Avd\nBuena Park, CA 90620",
    "contact_name" : "",
    "container_size" : 50,
    "formattedAddress" : "7185 Lincoln Ave, Buena Park, CA 90620",
    "frequency" : 14,
    "latitude" : 33.8323635,
    "longitude" : -118.0079574,
    "name" : "Joe Sushi",
    "telephone" : "714) 226-9100",
    "zone" : "CA - Orange - North"
  }, {
    "address" : "201 West Center St\n# D Promenade\nAnaheim, CA 92805",
    "contact_name" : "ARTC",
    "container_size" : 100,
    "formattedAddress" : "201 W Center Street Promenade, Anaheim, CA 92805",
    "frequency" : 14,
    "latitude" : 33.8341969,
    "longitude" : -117.9158022,
    "name" : "K & A Mex",
    "telephone" : "714) 776-8398",
    "zone" : "CA - Orange - North"
  }, {
    "address" : "12939 Main Street\nGarden Grove, CA 92840",
    "contact_name" : "Mike Silua",
    "container_size" : 30,
    "formattedAddress" : "Main Street, California",
    "frequency" : 14,
    "latitude" : 33.7846926,
    "longitude" : -117.8672916,
    "name" : "Kaye's Kitchen",
    "telephone" : "(714) 636-6755",
    "zone" : "CA - Orange - North"
  }, {
    "address" : "5414 Walnut Ave,\nIrvine, CA 92604",
    "contact_name" : "",
    "container_size" : 20,
    "formattedAddress" : "5414 Walnut Ave, Irvine, CA 92604",
    "frequency" : 30,
    "latitude" : 33.6893555,
    "longitude" : -117.770198,
    "name" : "Tai Chi Cuisine",
    "telephone" : "949) 653-5728",
    "zone" : "CA - Orange - North"
  }, {
    "address" : "11440 Western Ave\nStanton, CA 90680",
    "contact_name" : "",
    "container_size" : 150,
    "formattedAddress" : "11440 Western Ave, Stanton, CA 90680",
    "frequency" : 30,
    "latitude" : 33.7958269,
    "longitude" : -118.00135,
    "name" : "Terry's Cafe",
    "telephone" : "(714) 897-5247",
    "zone" : "CA - Orange - North"
  }, {
    "address" : "7631 Edinger Ave\nHuntington Beach, CA 92647",
    "contact_name" : "Zach",
    "container_size" : 89,
    "formattedAddress" : "7631 Edinger Ave, Huntington Beach, CA 92647",
    "frequency" : 30,
    "latitude" : 33.7315327,
    "longitude" : -117.9967225,
    "name" : "Eureka Burger - Huntington Beach",
    "telephone" : "",
    "zone" : "CA - Orange - North"
  }, {
    "address" : "1770 S Harbor Blvd\nAnaheim, CA 92802",
    "contact_name" : "",
    "container_size" : 50,
    "formattedAddress" : "1770 S Harbor Blvd, Anaheim, CA 92802",
    "frequency" : 30,
    "latitude" : 33.8039114,
    "longitude" : -117.9145433,
    "name" : "Panda Kitchen - Anaheim",
    "telephone" : "(714) 999-6888",
    "zone" : "CA - Orange - North"
  }, {
    "address" : "18220 Yorba Linda Blvd,\n#310\nYorba Linda, CA 92886",
    "contact_name" : "Ken",
    "container_size" : 50,
    "formattedAddress" : "18220 Yorba Linda Blvd #310, Yorba Linda, CA 92886",
    "frequency" : 30,
    "latitude" : 33.8874332,
    "longitude" : -117.814247,
    "name" : "Yoshi's Restaurant",
    "telephone" : "(714) 524-0829",
    "zone" : "CA - Orange - North"
  }, {
    "address" : "5300 Califorina Ave\nIrvine, CA 92617",
    "contact_name" : "",
    "container_size" : 100,
    "formattedAddress" : "Building 1, 5300 California Ave, Irvine, CA 92617",
    "frequency" : 30,
    "latitude" : 33.6364701,
    "longitude" : -117.8482534,
    "name" : "Broadcom Corp",
    "telephone" : "(949) 926-5000",
    "zone" : "CA - Orange - North"
  }, {
    "address" : "9908 Westminster Ave\nGarden Grove, CA 92844",
    "contact_name" : "Anh",
    "container_size" : 115,
    "formattedAddress" : "9908 Westminster Ave, Garden Grove, CA 92844",
    "frequency" : 30,
    "latitude" : 33.7594456,
    "longitude" : -117.9564998,
    "name" : "Binh Minh",
    "telephone" : "(714) 636-7103",
    "zone" : "CA - Orange - North"
  }, {
    "address" : "424 S Main St Unit F\nOrange, CA 92868",
    "contact_name" : "Virginia",
    "container_size" : 40,
    "formattedAddress" : "424 S Main St f, Orange, CA 92868",
    "frequency" : 21,
    "latitude" : 33.7815662,
    "longitude" : -117.8683325,
    "name" : "Cali Noodles and Grill",
    "telephone" : "(949) 212-3983",
    "zone" : "CA - Orange - North"
  }, {
    "address" : "1228 S. Brookhurst St\nAnaheim, CA 92804",
    "contact_name" : "Miguel Jimenez",
    "container_size" : 275,
    "formattedAddress" : "1228 S Brookhurst St, Anaheim, CA 92804",
    "frequency" : 21,
    "latitude" : 33.8166382,
    "longitude" : -117.9584322,
    "name" : "Casa Gamino Mexican Restaurant",
    "telephone" : "(714) 956-1120",
    "zone" : "CA - Orange - North"
  }, {
    "address" : "12232 Chapman Ave\nGarden Grove, CA 92840",
    "contact_name" : "Angelica Perez",
    "container_size" : 50,
    "formattedAddress" : "12232 Chapman Ave, Garden Grove, CA 92840",
    "frequency" : 45,
    "latitude" : 33.7882768,
    "longitude" : -117.9196398,
    "name" : "Chapman Care Center",
    "telephone" : "(714) 971-5517",
    "zone" : "CA - Orange - North"
  }, {
    "address" : "14882 Holt Ave\nTustin, CA 92780",
    "contact_name" : "Pedro Rodriguez",
    "container_size" : 150,
    "formattedAddress" : "14882 Holt Ave, Tustin, CA 92780",
    "frequency" : 30,
    "latitude" : 33.7470006,
    "longitude" : -117.8138418,
    "name" : "Don Jose - Tustin #604",
    "telephone" : "714) 832-3280",
    "zone" : "CA - Orange - North"
  }, {
    "address" : "1230 E. Katella Ave\nOrange, CA 92867",
    "contact_name" : "Rafael Carbajal",
    "container_size" : 130,
    "formattedAddress" : "1230 E Katella Ave, Orange, CA 92867",
    "frequency" : 21,
    "latitude" : 33.8088667,
    "longitude" : -117.840196,
    "name" : "Ricardos (Don Jose) Orange",
    "telephone" : "(714) 633-0330",
    "zone" : "CA - Orange - North"
  }, {
    "address" : "9240 Garden Grove Blvd #19\nGarden Grove, CA 92844",
    "contact_name" : "Jason Pham",
    "container_size" : 150,
    "formattedAddress" : "9240 Garden Grove Blvd #19, Garden Grove, CA 92844",
    "frequency" : 30,
    "latitude" : 33.7734548,
    "longitude" : -117.9708303,
    "name" : "Pho 45",
    "telephone" : "(714) 537-9000",
    "zone" : "CA - Orange - North"
  }, {
    "address" : "1120 W. 17th Street\nSanta Ana, CA 92706",
    "contact_name" : "Lynne Waterson",
    "container_size" : 150,
    "formattedAddress" : "1120 W 17th St, Santa Ana, CA 92706",
    "frequency" : 21,
    "latitude" : 33.7597667,
    "longitude" : -117.881302,
    "name" : "The Olde Ship",
    "telephone" : "(714) 871-7447",
    "zone" : "CA - Orange - North"
  }, {
    "address" : "4959 Katella Ave\nLos Alamitos, CA 90720",
    "contact_name" : "",
    "container_size" : 30,
    "formattedAddress" : "4959 Katella Ave, Cypress, CA 90720",
    "frequency" : 14,
    "latitude" : 33.8037644,
    "longitude" : -118.0440363,
    "name" : "Aroma Italiano Cafe",
    "telephone" : "(714) 816-3070",
    "zone" : "CA - Orange - North"
  }, {
    "address" : "",
    "contact_name" : "Joe Ruiz",
    "container_size" : 150,
    "frequency" : 30,
    "name" : "Rodrigo's - Huntington Beach #605",
    "telephone" : "(714) 839-4950",
    "zone" : "CA - Orange - North"
  }, {
    "address" : "16612 Beach Blvd\nHuntington Beach, CA 92647",
    "contact_name" : "",
    "container_size" : 30,
    "formattedAddress" : "16612 Beach Blvd, Huntington Beach, CA 92647",
    "frequency" : 30,
    "latitude" : 33.72133660000001,
    "longitude" : -117.9885583,
    "name" : "Phuket Thai Restaurant",
    "telephone" : "(714) 842-1101",
    "zone" : "CA - Orange - North"
  }, {
    "address" : "12540 Valley View Street\nGarden Grove, CA 92845",
    "contact_name" : "Nick",
    "container_size" : 275,
    "formattedAddress" : "12540 Valley View St, Garden Grove, CA 92845",
    "frequency" : 45,
    "latitude" : 33.7804233,
    "longitude" : -118.0305486,
    "name" : "Shakey's - Valley View",
    "telephone" : "714) 240-3867",
    "zone" : "CA - Orange - North"
  }, {
    "address" : "14115 Goldenwest St\n# C\nWestminster, CA 92683",
    "contact_name" : "",
    "container_size" : 150,
    "formattedAddress" : "14115 Goldenwest St, Westminster, CA 92683",
    "frequency" : 45,
    "latitude" : 33.7574125,
    "longitude" : -118.0074739,
    "name" : "Kim Hong Egg Rolls",
    "telephone" : "(714) 895-0030",
    "zone" : "CA - Orange - North"
  }, {
    "address" : "1027 South Harbor Blvd\nAnaheim, CA 92805",
    "contact_name" : "Hai",
    "container_size" : 150,
    "formattedAddress" : "1027 S Harbor Blvd, Anaheim, CA 92805",
    "frequency" : 30,
    "latitude" : 33.8195493,
    "longitude" : -117.9154607,
    "name" : "Pho Song Hai",
    "telephone" : "(714) 837-5415",
    "zone" : "CA - Orange - North"
  }, {
    "address" : "4250 Barranca Parkway\n# U\nIrvine, CA 92604",
    "contact_name" : "Josephs",
    "container_size" : 150,
    "formattedAddress" : "4250 Barranca Pkwy, Irvine, CA 92604",
    "frequency" : 30,
    "latitude" : 33.6811321,
    "longitude" : -117.8048251,
    "name" : "Thai Kitchen",
    "telephone" : "(949) 857-1788",
    "zone" : "CA - Orange - North"
  }, {
    "address" : "615 19th\nCosta Mesa, CA 92627",
    "contact_name" : "",
    "container_size" : 150,
    "formattedAddress" : "615 W 19th St, Costa Mesa, CA 92627",
    "frequency" : 21,
    "latitude" : 33.6432191,
    "longitude" : -117.9241196,
    "name" : "Paul's Famous Burger",
    "telephone" : "(949) 548-2858",
    "zone" : "CA - Orange - North"
  }, {
    "address" : "675 paularino ave, Costa Mesa ca",
    "contact_name" : "Tony",
    "container_size" : 40,
    "formattedAddress" : "675 Paularino Ave, Costa Mesa, CA 92626",
    "frequency" : 21,
    "latitude" : 33.6819701,
    "longitude" : -117.8844175,
    "name" : "Sushi Boy",
    "telephone" : "(714) 4291777",
    "zone" : "CA - Orange - North"
  }, {
    "address" : "4250 Barranca Pkwy\n# R\nIrvine, CA 92604",
    "contact_name" : "Mary Leyva",
    "container_size" : 150,
    "formattedAddress" : "4250 Barranca Pkwy, Irvine, CA 92604",
    "frequency" : 21,
    "latitude" : 33.6811321,
    "longitude" : -117.8048251,
    "name" : "Philly's Best - Irvine",
    "telephone" : "(949) 857-2448",
    "zone" : "CA - Orange - North"
  }, {
    "address" : "111 Peters Canyon Rd\nIrvine, CA 92606",
    "contact_name" : "Micheal",
    "container_size" : 84,
    "formattedAddress" : "111 Peters Canyon Rd, Irvine, CA 92606",
    "frequency" : 30,
    "latitude" : 33.7156134,
    "longitude" : -117.7939321,
    "name" : "Kia Motors-CulinArt",
    "telephone" : "(714) 724-0107",
    "zone" : "CA - Orange - North"
  }, {
    "address" : "800 W Katella Ave\nAnaheim, CA 92802",
    "contact_name" : "Steven Gomez",
    "container_size" : 275,
    "formattedAddress" : "800 W Katella Ave, Anaheim, CA 92802",
    "frequency" : 14,
    "latitude" : 33.8003652,
    "longitude" : -117.9208568,
    "name" : "Anaheim Convention Center",
    "telephone" : "(714) 765-8800",
    "zone" : "CA - Orange - North"
  }, {
    "address" : "201 West Center St\nPromenade Ste D\nAnaheim, CA 92805",
    "contact_name" : "ARTC",
    "container_size" : 150,
    "formattedAddress" : "201 W Center Street Promenade d, Anaheim, CA 92805",
    "frequency" : 14,
    "latitude" : 33.8341969,
    "longitude" : -117.9158022,
    "name" : "K & A cafe",
    "telephone" : "(714) 778-5455",
    "zone" : "CA - Orange - North"
  }, {
    "address" : "4341 Macarthur Blvd. Ste #F\nNewport Beach, CA 92660",
    "contact_name" : "Nariana Arteaga",
    "container_size" : 30,
    "formattedAddress" : "4341 MacArthur Blvd f, Newport Beach, CA 92660",
    "frequency" : 14,
    "latitude" : 33.6668956,
    "longitude" : -117.8648178,
    "name" : "La Salsa - Macarthur #102",
    "telephone" : "(949) 475-2506",
    "zone" : "CA - Orange - North"
  }, {
    "address" : "12101 Seal Beach Blvd\nSeal Beach, CA 90740",
    "contact_name" : "",
    "container_size" : 40,
    "formattedAddress" : "12101 Seal Beach Blvd, Seal Beach, CA 90740",
    "frequency" : 14,
    "latitude" : 33.7868177,
    "longitude" : -118.0725438,
    "name" : "Chick Fil A Seal Beach",
    "telephone" : "(562) 430-3060",
    "zone" : "CA - Orange - North"
  }, {
    "address" : "7740 Orangethorpe Ave\nBuena Park, CA 90621",
    "contact_name" : "Melissa",
    "container_size" : 250,
    "formattedAddress" : "7740 Orangethorpe Ave, Buena Park, CA 90621",
    "frequency" : 14,
    "latitude" : 33.8586514,
    "longitude" : -117.998442,
    "name" : "Denny's Buena Park - JS",
    "telephone" : "(714) 523-9241",
    "zone" : "CA - Orange - North"
  }, {
    "address" : "5633 Alton Parkway Bldg #200\nIrvine, CA 92618",
    "contact_name" : "Ysabel Espinoza",
    "container_size" : 84,
    "formattedAddress" : "5633 Alton Pkwy #200, Irvine, CA 92618",
    "frequency" : 30,
    "latitude" : 33.6698849,
    "longitude" : -117.7862341,
    "name" : "Baja Fresh - South Irvine #82",
    "telephone" : "(949) 551-2252",
    "zone" : "CA - Orange - North"
  }, {
    "address" : "16388 Beach Blvd\nWestminster, CA 92683",
    "contact_name" : "jeremy",
    "container_size" : 40,
    "formattedAddress" : "16388 Beach Blvd, Westminster, CA 92683",
    "frequency" : 14,
    "latitude" : 33.726015,
    "longitude" : -117.98873,
    "name" : "Chick Fil A Westminster",
    "telephone" : "(949) 599-521",
    "zone" : "CA - Orange - North"
  }, {
    "address" : "7511 Edinger Ave\n#102\nHuntington Beach, CA 92647",
    "contact_name" : "Bijan Sami",
    "container_size" : 40,
    "formattedAddress" : "7511 Edinger Ave #102, Huntington Beach, CA 92647",
    "frequency" : 14,
    "latitude" : 33.7304534,
    "longitude" : -117.9967744,
    "name" : "Luna Grill - Huntington #12",
    "telephone" : "(858) 450 1188",
    "zone" : "CA - Orange - North"
  }, {
    "address" : "2889 Park Ave\nTustin, CA 92782",
    "contact_name" : "01958@chick-fil-a.com",
    "container_size" : 40,
    "formattedAddress" : "2889 Park Ave, Tustin, CA 92782",
    "frequency" : 14,
    "latitude" : 33.6949868,
    "longitude" : -117.8264299,
    "name" : "Chick Fil A Tustin Legacy",
    "telephone" : "",
    "zone" : "CA - Orange - North"
  }, {
    "address" : "22755 Savi Ranch Pkwy\nYorba Linda, CA 92887",
    "contact_name" : "Shinnee Kim",
    "container_size" : 30,
    "formattedAddress" : "22755 Savi Ranch Pkwy, Yorba Linda, CA 92887",
    "frequency" : 14,
    "latitude" : 33.8765165,
    "longitude" : -117.7385455,
    "name" : "57 Chinese Restaurant",
    "telephone" : "213) 700-3039",
    "zone" : ""
  }, {
    "address" : "3033 S.Bristol Street\nSuite H\nCosta Mesa, CA 92626",
    "contact_name" : "Stephanie Vong",
    "container_size" : 150,
    "formattedAddress" : "3033 Bristol St h, Costa Mesa, CA 92626",
    "frequency" : 14,
    "latitude" : 33.6816369,
    "longitude" : -117.8863855,
    "name" : "California Wok",
    "telephone" : "(714) 751-0673",
    "zone" : "CA - Orange - North"
  }, {
    "address" : "1610 S Harbor Blvd,\nAnaheim, CA 92802",
    "contact_name" : "ceasar",
    "container_size" : 84,
    "formattedAddress" : "1610 S Harbor Blvd, Anaheim, CA 92802",
    "frequency" : 7,
    "latitude" : 33.808467,
    "longitude" : -117.9148556,
    "name" : "Denny's Anaheim",
    "telephone" : "(714) 7763300",
    "zone" : "CA - Orange - North"
  }, {
    "address" : "1027 South Harbor Blvd\nAnaheim, CA 92805",
    "contact_name" : "Geminlin Ramos or Jasmine",
    "container_size" : 70,
    "formattedAddress" : "1027 S Harbor Blvd, Anaheim, CA 92805",
    "frequency" : 7,
    "latitude" : 33.8195493,
    "longitude" : -117.9154607,
    "name" : "Shakey's - Anaheim",
    "telephone" : "714) 533-0442",
    "zone" : "CA - Orange - North"
  }, {
    "address" : "3033 bristol St\nSuite M\nCosta Mesa, CA 92626",
    "contact_name" : "Jim Suh",
    "container_size" : 150,
    "formattedAddress" : "3033 Bristol St m, Costa Mesa, CA 92626",
    "frequency" : 14,
    "latitude" : 33.6816369,
    "longitude" : -117.8863855,
    "name" : "HASHIGO KOREAN KITCHEN",
    "telephone" : "(714) 557-4911",
    "zone" : "CA - Orange - North"
  }, {
    "address" : "18685 Main Street\nSuite 106\nHuntington Beach, CA 92648",
    "contact_name" : "",
    "container_size" : 150,
    "formattedAddress" : "18685 Main St #106, Huntington Beach, CA 92648",
    "frequency" : 14,
    "latitude" : 33.691863,
    "longitude" : -117.9926447,
    "name" : "HASHIGO SUSHI",
    "telephone" : "(714) 848-1111",
    "zone" : "CA - Orange - North"
  }, {
    "address" : "330 N Brea Blvd\n# L\nBrea, CA 92821",
    "contact_name" : "Mohammad Idrees",
    "container_size" : 150,
    "formattedAddress" : "330 N Brea Blvd, Brea, CA 92821",
    "frequency" : 21,
    "latitude" : 33.923553,
    "longitude" : -117.8957601,
    "name" : "Shakey's - Brea",
    "telephone" : "(714) 671-3949",
    "zone" : "CA - Orange - North"
  }, {
    "address" : "18691 Brookhurst St\nFountain Valley, CA 92708",
    "contact_name" : "Mary Leyva",
    "container_size" : 150,
    "formattedAddress" : "18691 Brookhurst St, Fountain Valley, CA 92708",
    "frequency" : 21,
    "latitude" : 33.6912379,
    "longitude" : -117.9551322,
    "name" : "Philly's Best - Fountain Valley",
    "telephone" : "(714) 968-2448",
    "zone" : "CA - Orange - North"
  }, {
    "address" : "21040 Pacific Coast Highway\nSuite F200\nHuntington Beach, CA 92648",
    "contact_name" : "Toby",
    "container_size" : 40,
    "formattedAddress" : "21040 Pacific Coast Hwy f200, Huntington Beach, CA 92648",
    "frequency" : 7,
    "latitude" : 33.6546011,
    "longitude" : -117.9976537,
    "name" : "Ola",
    "telephone" : "(562) 714-6921",
    "zone" : "CA - Orange - North"
  }, {
    "address" : "3050 E Coast Hwy\nCorona Del Mar, CA 92625",
    "contact_name" : "Jamile Istajab",
    "container_size" : 30,
    "formattedAddress" : "3050 East Coast Hwy, Corona Del Mar, CA 92625",
    "frequency" : 30,
    "latitude" : 33.59851100000001,
    "longitude" : -117.871504,
    "name" : "Baja Fresh - Corona Del Mar #119",
    "telephone" : "(951) 4546135",
    "zone" : "CA - Orange - North"
  }, {
    "address" : "545 Westminster Mall Drive\nWestminster, CA 92683",
    "contact_name" : "Tiffany",
    "container_size" : 150,
    "formattedAddress" : "545 Westminster Mall, Westminster, CA 92683",
    "frequency" : 30,
    "latitude" : 33.7448687,
    "longitude" : -118.0139372,
    "name" : "Vietnames Fine Dinner",
    "telephone" : "(714) 898-5121",
    "zone" : "CA - Orange - North"
  }, {
    "address" : "13248 Jamboree Rd. Unit #114\nIrvine, CA 92602",
    "contact_name" : "Rosario Bernal",
    "container_size" : 30,
    "formattedAddress" : "13248 Jamboree Rd #114, Irvine, CA 92602",
    "frequency" : 21,
    "latitude" : 33.7279364,
    "longitude" : -117.7863935,
    "name" : "Baja Fresh - North Irvine #63",
    "telephone" : "(714) 508-7777",
    "zone" : "CA - Orange - North"
  }, {
    "address" : "3965 Alton Pkwy\nIrvine, CA 92606",
    "contact_name" : "Bijan Sami",
    "container_size" : 30,
    "formattedAddress" : "3965 Alton Pkwy, Irvine, CA 92606",
    "frequency" : 14,
    "latitude" : 33.6823851,
    "longitude" : -117.8133549,
    "name" : "Luna Grill - West Park",
    "telephone" : "(858) 450-1188",
    "zone" : "CA - Orange - North"
  }, {
    "address" : "14007 Goldenwest St\nWestminster, CA 92683",
    "contact_name" : "TARA",
    "container_size" : 150,
    "formattedAddress" : "14007 Goldenwest St, Westminster, CA 92683",
    "frequency" : 14,
    "latitude" : 33.7591691,
    "longitude" : -118.0072688,
    "name" : "Jasmine Thai Cuisine",
    "telephone" : "(714) 379-9088",
    "zone" : "CA - Orange - North"
  }, {
    "address" : "14241 Euclid St #C-116\nGarden Grove, CA 92843",
    "contact_name" : "",
    "container_size" : 275,
    "formattedAddress" : "14241 Euclid St, Garden Grove, CA 92843",
    "frequency" : 7,
    "latitude" : 33.7561487,
    "longitude" : -117.9384988,
    "name" : "The Boiling Crab - Euclid",
    "telephone" : "(714) 393-3525",
    "zone" : "CA - Orange - North"
  }, {
    "address" : "7030 Valley View\nBuena Park, CA 90620",
    "contact_name" : "Lora",
    "container_size" : 150,
    "formattedAddress" : "7030 Valley View St, Buena Park, CA 90620",
    "frequency" : 14,
    "latitude" : 33.8580181,
    "longitude" : -118.0281048,
    "name" : "Shakey's #53 / Buena Park",
    "telephone" : "(714) 994-5704",
    "zone" : "CA - Orange - North"
  }, {
    "address" : "13898 Brookhurst St\nGarden Grove, CA 92843",
    "contact_name" : "LIEN",
    "container_size" : 150,
    "formattedAddress" : "13898 Brookhurst St, Garden Grove, CA 92843",
    "frequency" : 14,
    "latitude" : 33.7609473,
    "longitude" : -117.9532836,
    "name" : "Lien Hue # 2",
    "telephone" : "(714) 636-4883",
    "zone" : "CA - Orange - North"
  }, {
    "address" : "13892 Brookhurst St.\nGarden Grove, CA 92843",
    "contact_name" : "david",
    "container_size" : 275,
    "formattedAddress" : "13892 Brookhurst St, Garden Grove, CA 92843",
    "frequency" : 7,
    "latitude" : 33.7611524,
    "longitude" : -117.9532408,
    "name" : "The Boiling Crab - Brookhurst",
    "telephone" : "(714) 393-3525",
    "zone" : "CA - Orange - North"
  }, {
    "address" : "10141 Westminster Ave\n# J\nGarden Grove, CA 92843",
    "contact_name" : "LE HUYN",
    "container_size" : 50,
    "formattedAddress" : "10141 Westminster Ave, Garden Grove, CA 92843",
    "frequency" : 14,
    "latitude" : 33.7599143,
    "longitude" : -117.9516904,
    "name" : "MY VI MI GIA # 2",
    "telephone" : "(714) 537-3386",
    "zone" : "CA - Orange - North"
  }, {
    "address" : "21028 Pacific Coast Hwy\nE-100\nHuntington Beach, CA 92647",
    "contact_name" : "Jonathon Schwichtenberg",
    "container_size" : 40,
    "formattedAddress" : "21028 Pacific Coast Hwy, Huntington Beach, CA 92648",
    "frequency" : 7,
    "latitude" : 33.6548516,
    "longitude" : -117.9980604,
    "name" : "Simmzy's - Huntington Beach",
    "telephone" : "(310) 736-7265 X",
    "zone" : "CA - Orange - North"
  }, {
    "address" : "1500 W MacArthur Blvd\nSanta Ana, CA 92704",
    "contact_name" : "Tai Pham",
    "container_size" : 275,
    "formattedAddress" : "1500 W MacArthur Blvd, Santa Ana, CA 92704",
    "frequency" : 7,
    "latitude" : 33.6996689,
    "longitude" : -117.8884131,
    "name" : "Boiling Crab - Santa Ana",
    "telephone" : "(714) 356-3068",
    "zone" : "CA - Orange - North"
  }, {
    "address" : "13908 #B Brookhurst Street\nGarden Grove, CA 92843",
    "contact_name" : "David",
    "container_size" : 150,
    "formattedAddress" : "13908 Brookhurst St, Garden Grove, CA 92843",
    "frequency" : 30,
    "latitude" : 33.760588,
    "longitude" : -117.9534369,
    "name" : "The Boiling Crab -To-Go",
    "telephone" : "(714) 393-3525",
    "zone" : "CA - Orange - North"
  }, {
    "address" : "8415 Westminster Blvd\nWestminster, CA 92683",
    "contact_name" : "Phung",
    "container_size" : "",
    "formattedAddress" : "8415 Westminster Ave, Westminster, CA 92683",
    "frequency" : 14,
    "latitude" : 33.7597357,
    "longitude" : -117.9825251,
    "name" : "Mai Phung Restaurant",
    "telephone" : "(714) 890-3502",
    "zone" : "CA - Orange - North"
  }, {
    "address" : "101 The City Drive South\nOrange, CA 92868",
    "contact_name" : "David Yakutake",
    "container_size" : 100,
    "formattedAddress" : "101 The City Dr S, Orange, CA 92868",
    "frequency" : 14,
    "latitude" : 33.7880681,
    "longitude" : -117.8902578,
    "name" : "UCI Medical Center",
    "telephone" : "(714) 456-5323",
    "zone" : "CA - Orange - North"
  }, {
    "address" : "3181 Harbor Blvd\nCosta Mesa, CA 92626",
    "contact_name" : "Tammy",
    "container_size" : 40,
    "formattedAddress" : "3181 Harbor Blvd, Costa Mesa, CA 92626",
    "frequency" : 14,
    "latitude" : 33.6863452,
    "longitude" : -117.9200696,
    "name" : "Chick Fil A Costa Mesa",
    "telephone" : "(714) 4350145",
    "zone" : "CA - Orange - North"
  }, {
    "address" : "13612 Newport Ave\nTustin, CA 92780",
    "contact_name" : "Julie Hennessey",
    "container_size" : 150,
    "formattedAddress" : "13612 Newport Ave, Tustin, CA 92780",
    "frequency" : 30,
    "latitude" : 33.7424031,
    "longitude" : -117.8173434,
    "name" : "Oggi's Pizza & Brewing Co - Tustin",
    "telephone" : "(714) 731-6444",
    "zone" : "CA - Orange - North"
  }, {
    "address" : "315 W Whittier Blvd\nLa Habra, CA 90631",
    "contact_name" : "Ms. Van Tran",
    "container_size" : 150,
    "formattedAddress" : "315 W Whittier Blvd, La Habra, CA 90631",
    "frequency" : 14,
    "latitude" : 33.9393761,
    "longitude" : -117.9487288,
    "name" : "Shakey's - La Habra",
    "telephone" : "(562) 694-2282",
    "zone" : "CA - Orange - North"
  }, {
    "address" : "227 N Boardway\nSanta Ana, CA 92701",
    "contact_name" : "Chirs",
    "container_size" : 150,
    "formattedAddress" : "227 N Broadway, Santa Ana, CA 92701",
    "frequency" : 14,
    "latitude" : 33.746968,
    "longitude" : -117.869387,
    "name" : "Chapter One",
    "telephone" : "(714) 352-2225",
    "zone" : "CA - Orange - North"
  }, {
    "address" : "11061 Los Alamitos Blvd\nLos Alamitos, CA 90720",
    "contact_name" : "Vanessa Travis",
    "container_size" : 130,
    "formattedAddress" : "11061 Los Alamitos Blvd, Los Alamitos, CA 90720",
    "frequency" : 14,
    "latitude" : 33.801952,
    "longitude" : -118.072601,
    "name" : "The Original Fish Company Restaurant",
    "telephone" : "(562) 594-4553",
    "zone" : "CA - Orange - North"
  }, {
    "address" : "709 N. Harbor Blvd\nFullerton, CA 92832",
    "contact_name" : "Jackie McGuiness",
    "container_size" : 150,
    "formattedAddress" : "709 N Harbor Blvd, Fullerton, CA 92832",
    "frequency" : 14,
    "latitude" : 33.8768594,
    "longitude" : -117.9245322,
    "name" : "The Olde Ship",
    "telephone" : "(714) 550-6700",
    "zone" : "CA - Orange - North"
  }, {
    "address" : "1725 N. Placentia\nFullerton, CA 92831",
    "contact_name" : "Effrin Esparza",
    "container_size" : 150,
    "formattedAddress" : "1725 N Placentia Ave, Fullerton, CA 92831",
    "frequency" : 21,
    "latitude" : 33.888167,
    "longitude" : -117.8751491,
    "name" : "Don Jose - Fullerton #606",
    "telephone" : "(714) 524-3890",
    "zone" : "CA - Orange - North"
  }, {
    "address" : "2801 W. MacArthur Blvd\nSanta Ana, CA 92704",
    "contact_name" : "Eric Johnson",
    "container_size" : 60,
    "formattedAddress" : "2801 W MacArthur Blvd, Santa Ana, CA 92704",
    "frequency" : 14,
    "latitude" : 33.7002804,
    "longitude" : -117.9067005,
    "name" : "Philly's Best - Santa Ana",
    "telephone" : "(714) 549-1400",
    "zone" : "CA - Orange - North"
  }, {
    "address" : "3033 Bristol street suite L\nCosta Mesa, CA 92626",
    "contact_name" : "Young Lee",
    "container_size" : 30,
    "formattedAddress" : "3033 Bristol St l, Costa Mesa, CA 92626",
    "frequency" : 30,
    "latitude" : 33.6816369,
    "longitude" : -117.8863855,
    "name" : "Tapioca Express",
    "telephone" : "(714) 549-0811",
    "zone" : "CA - Orange - North"
  }, {
    "address" : "4127 Campus Drive\nIrvine, CA 92612",
    "contact_name" : "Craig Takata",
    "container_size" : 40,
    "formattedAddress" : "4127 Campus Dr, Irvine, CA 92612",
    "frequency" : 14,
    "latitude" : 33.6496507,
    "longitude" : -117.8396689,
    "name" : "Chick-Fil-A UCI",
    "telephone" : "(949) 725-0230",
    "zone" : "CA - Orange - North"
  }, {
    "address" : "4500 MacArthur Blvd\nNewport Beach, CA 92660",
    "contact_name" : "Chad Blunston",
    "container_size" : 130,
    "formattedAddress" : "4500 MacArthur Blvd, Newport Beach, CA 92660",
    "frequency" : 14,
    "latitude" : 33.66726209999999,
    "longitude" : -117.8625507,
    "name" : "Fairmont Hotel",
    "telephone" : "(949) 428-5753",
    "zone" : "CA - Orange - North"
  }, {
    "address" : "4143 Campus Drive Suite C193 Irvine\nIrvine, CA 92612",
    "contact_name" : "",
    "container_size" : 250,
    "formattedAddress" : "4143 Campus Dr c193, Irvine, CA 92612",
    "frequency" : 14,
    "latitude" : 33.6504966,
    "longitude" : -117.8391202,
    "name" : "Eureka Burger - Irvine",
    "telephone" : "949) 596-8881",
    "zone" : "CA - Orange - North"
  }, {
    "address" : "18900 Beach Blvd,\nHuntington Beach, CA 92648",
    "contact_name" : "",
    "container_size" : 30,
    "formattedAddress" : "18900 Beach Blvd, Huntington Beach, CA 92648",
    "frequency" : 14,
    "latitude" : 33.6877076,
    "longitude" : -117.9886566,
    "name" : "Ikeda Japanese Grill",
    "telephone" : "",
    "zone" : "CA - Orange - North"
  }, {
    "address" : "7005 Knott Ave.\nBuena Park, CA 90620",
    "contact_name" : "Ron Sear",
    "container_size" : 200,
    "formattedAddress" : "7005 Knott Ave, Buena Park, CA 90620",
    "frequency" : 30,
    "latitude" : 33.8585731,
    "longitude" : -118.0115762,
    "name" : "Black Bear Diner - Buena Park",
    "telephone" : "(714) 916 4475",
    "zone" : "CA - Orange - North"
  }, {
    "address" : "5665 East Santa Ana Canyon Road, Anaheim, CA 92807",
    "contact_name" : "Robert Rivas",
    "container_size" : 150,
    "formattedAddress" : "5665 E Santa Ana Canyon Rd, Anaheim, CA 92807",
    "frequency" : 14,
    "latitude" : 33.8526874,
    "longitude" : -117.7912299,
    "name" : "Don Jose - Anaheim #607",
    "telephone" : "(714) 995-2661",
    "zone" : "CA - Orange - North"
  }, {
    "address" : "1406 S Fairview St\nSanta Ana, CA 92704",
    "contact_name" : "Jamshed Khan",
    "container_size" : 150,
    "formattedAddress" : "1406 S Fairview St, Santa Ana, CA 92704",
    "frequency" : 14,
    "latitude" : 33.7283629,
    "longitude" : -117.9064739,
    "name" : "Shakey's - Santa Ana",
    "telephone" : "(714) 546-8969",
    "zone" : "CA - Orange - North"
  }, {
    "address" : "12172 Brookhurst St\nGarden Grove, CA 92840",
    "contact_name" : "M & Toi Vietnamese Rest",
    "container_size" : 40,
    "formattedAddress" : "12172 Brookhurst St, Garden Grove, CA 92840",
    "frequency" : 14,
    "latitude" : 33.785995,
    "longitude" : -117.957962,
    "name" : "Mais Restaurant",
    "telephone" : "",
    "zone" : "CA - Orange - North"
  }, {
    "address" : "307 N Spurgeon St\nSanta Ana, CA 92701",
    "contact_name" : "Chris",
    "container_size" : 40,
    "formattedAddress" : "307 N Spurgeon St, Santa Ana, CA 92701",
    "frequency" : 14,
    "latitude" : 33.7474259,
    "longitude" : -117.8651947,
    "name" : "Yost Theatre",
    "telephone" : "(888) 862-9573",
    "zone" : "CA - Orange - North"
  }, {
    "address" : "5665 Santa Ana Canyon Rd.\nAnaheim Hills, CA 92807",
    "contact_name" : "Patrick Fraser",
    "container_size" : 150,
    "formattedAddress" : "5665 E Santa Ana Canyon Rd, Anaheim, CA 92807",
    "frequency" : 14,
    "latitude" : 33.85273,
    "longitude" : -117.791175,
    "name" : "Don Jose - Anaheim Hills #618",
    "telephone" : "(714) 974-2291",
    "zone" : "CA - Orange - North"
  }, {
    "address" : "2525 Westminster Ave\nSte H\nSanta Ana, CA 92706",
    "contact_name" : "Vanessa Pham",
    "container_size" : 275,
    "formattedAddress" : "2525 Westminster Ave h, Santa Ana, CA 92706",
    "frequency" : 14,
    "latitude" : 33.760499,
    "longitude" : -117.9040799,
    "name" : "Pho Hien Vuong",
    "telephone" : "(714) 554-2696",
    "zone" : "CA - Orange - North"
  }, {
    "address" : "16338 Beach Blvd\nWestminster, CA 92683",
    "contact_name" : "Mark",
    "container_size" : 150,
    "formattedAddress" : "16338 Beach Blvd, Westminster, CA 92683",
    "frequency" : 30,
    "latitude" : 33.7261683,
    "longitude" : -117.9878825,
    "name" : "Thai Princess Restaurant",
    "telephone" : "(714) 841-7935",
    "zone" : "CA - Orange - North"
  }, {
    "address" : "9541 Bolsa Avenue\nWestminster, CA 92683",
    "contact_name" : "Jimmy Tran",
    "container_size" : 150,
    "formattedAddress" : "9541 Bolsa Ave, Westminster, CA 92683",
    "frequency" : 14,
    "latitude" : 33.7451264,
    "longitude" : -117.9627607,
    "name" : "Bun Bo Hue Restaurant",
    "telephone" : "(714) 531-3855",
    "zone" : "CA - Orange - North"
  }, {
    "address" : "4109 Ball Road\nCypress, CA 90630",
    "contact_name" : "Mr .Takeuchi",
    "container_size" : 150,
    "formattedAddress" : "4109 Ball Rd, Cypress, CA 90630",
    "frequency" : 14,
    "latitude" : 33.8176625,
    "longitude" : -118.0610414,
    "name" : "New Harima Japanese Cuisine",
    "telephone" : "(714) 527-3576",
    "zone" : "CA - Orange - North"
  }, {
    "address" : "16277 Laguna Canyon Rd\nSte D\nIrvine, CA 92618",
    "contact_name" : "",
    "container_size" : 40,
    "formattedAddress" : "16277 Laguna Canyon Rd d, Irvine, CA 92618",
    "frequency" : 14,
    "latitude" : 33.6573983,
    "longitude" : -117.769947,
    "name" : "Quickly Cafe",
    "telephone" : "",
    "zone" : "CA - Orange - North"
  }, {
    "address" : "133 W. Chapman Ave\nFullerton, CA 92832",
    "contact_name" : "Tom Rhinehart",
    "container_size" : 150,
    "formattedAddress" : "133 W Chapman Ave, Fullerton, CA 92832",
    "frequency" : 30,
    "latitude" : 33.874176,
    "longitude" : -117.9258684,
    "name" : "Philly's Best-Fullerton",
    "telephone" : "(714) 278-0055",
    "zone" : "CA - Orange - North"
  }, {
    "address" : "5701 Katella Ave\nCypress, CA 90630",
    "contact_name" : "Ana Romero",
    "container_size" : 275,
    "formattedAddress" : "5701 Katella Ave, Cypress, CA 90630",
    "frequency" : 30,
    "latitude" : 33.8036711,
    "longitude" : -118.0330961,
    "name" : "United Health Care",
    "telephone" : "(714) 226-5393",
    "zone" : "CA - Orange - North"
  }, {
    "address" : "75-985 Highway 111\nIndian Wells, CA 92210",
    "contact_name" : "Gina Cariaga",
    "container_size" : 84,
    "formattedAddress" : "985 CA-111, Indian Wells, CA 92210",
    "frequency" : 30,
    "latitude" : 33.7214792,
    "longitude" : -116.3263065,
    "name" : "Eureka Burger- Indian Wells",
    "telephone" : "(760) 834-7700",
    "zone" : "CA - Palm Springs"
  }, {
    "address" : "71800 Hwy 111 A116\nRancho Mirage, CA 92270",
    "contact_name" : "Leo Duran Duran",
    "container_size" : 40,
    "formattedAddress" : "71800 CA-111, Rancho Mirage, CA 92270",
    "frequency" : 30,
    "latitude" : 33.7401032,
    "longitude" : -116.409588,
    "name" : "Baja Fresh #147",
    "telephone" : "(760) 674-9380",
    "zone" : "CA - Palm Springs"
  }, {
    "address" : "65770 Hammond Road\nMecca, CA 92254",
    "contact_name" : "",
    "container_size" : 50,
    "formattedAddress" : "65770 Hammond Rd, Mecca, CA 92254",
    "frequency" : 30,
    "latitude" : 33.570808,
    "longitude" : -116.076652,
    "name" : "Leon's Meat Market",
    "telephone" : "",
    "zone" : "CA - Palm Springs"
  }, {
    "address" : "37029 Cook Street\nPalm Desert, CA 92211",
    "contact_name" : "Bill Vilhauer",
    "container_size" : 60,
    "formattedAddress" : "37029 Cook St, Palm Desert, CA 92211",
    "frequency" : 30,
    "latitude" : 33.775883,
    "longitude" : -116.3566007,
    "name" : "Pizzeria Villagio",
    "telephone" : "(760) 779-5050",
    "zone" : "CA - Palm Springs"
  }, {
    "address" : "200 S. PALM CANYON DRIVE\nPalm Springs, CA 92262",
    "contact_name" : "Karla Casillas",
    "container_size" : 250,
    "formattedAddress" : "200 S Palm Canyon Dr, Palm Springs, CA 92262",
    "frequency" : 30,
    "latitude" : 33.8210349,
    "longitude" : -116.5464589,
    "name" : "LuLu California Bistro",
    "telephone" : "(760) 778-1497",
    "zone" : "CA - Palm Springs"
  }, {
    "address" : "1030 E Palm Canyon Dr\nPalm Springs, CA 92264",
    "contact_name" : "Troy Kennedy",
    "container_size" : 250,
    "formattedAddress" : "1030 E Palm Canyon Dr, Palm Springs, CA 92264",
    "frequency" : 30,
    "latitude" : 33.8017197,
    "longitude" : -116.5363421,
    "name" : "Elmer's - Palm Springs",
    "telephone" : "(760) 327-8419",
    "zone" : "CA - Palm Springs"
  }, {
    "address" : "529 Beaumont Ave\nBeaumont, CA 92223",
    "contact_name" : "Margarita Andrade",
    "container_size" : 250,
    "formattedAddress" : "529 Beaumont Ave, Beaumont, CA 92223",
    "frequency" : 30,
    "latitude" : 33.928422,
    "longitude" : -116.9775034,
    "name" : "Baker's Burgers -#110-Beaumont",
    "telephone" : "(909) 889-7766",
    "zone" : "CA - Palm Springs"
  }, {
    "address" : "892 Oak Valley Pkwy\nBeaumont, CA 92223",
    "contact_name" : "Alejandro",
    "container_size" : 84,
    "formattedAddress" : "892 Oak Valley Pkwy, Beaumont, CA 92223",
    "frequency" : 30,
    "latitude" : 33.9479425,
    "longitude" : -116.9988008,
    "name" : "Sandtrap Sports Bar",
    "telephone" : "(951) 922-4949",
    "zone" : "CA - Palm Springs"
  }, {
    "address" : "70-737 Country Club Drive\nRancho Mirage, CA 92270",
    "contact_name" : "Chris Olson",
    "container_size" : 250,
    "formattedAddress" : "Country Club Dr, Rancho Mirage, CA 92270",
    "frequency" : 30,
    "latitude" : 33.7578049,
    "longitude" : -116.4134901,
    "name" : "Thunderbird Country Club",
    "telephone" : "(760) 770-6118",
    "zone" : "CA - Palm Springs"
  }, {
    "address" : "3150 Case Rd.\nPerris, CA 92570",
    "contact_name" : "",
    "container_size" : 84,
    "formattedAddress" : "3150 Case Rd, Perris, CA 92570",
    "frequency" : 21,
    "latitude" : 33.7457783,
    "longitude" : -117.1919986,
    "name" : "Los Primos #26 - Perris",
    "telephone" : "(951) 928-1077",
    "zone" : "CA - Moreno Valley"
  }, {
    "address" : "23346 Sunnymead Blvd\nMoreno Valley, CA 92553",
    "contact_name" : "Stanley Veum",
    "container_size" : 250,
    "formattedAddress" : "23346 Sunnymead Boulevard, Moreno Valley, CA 92553",
    "frequency" : 21,
    "latitude" : 33.9393028,
    "longitude" : -117.2537844,
    "name" : "Shakey's - Moreno Valley",
    "telephone" : "(951) 242-2200",
    "zone" : "CA - Moreno Valley"
  }, {
    "address" : "12820 Day St\nMoreno Valley, CA 92553",
    "contact_name" : "Kammie Kilkenny",
    "container_size" : 250,
    "formattedAddress" : "12820 Day St, Moreno Valley, CA 92553",
    "frequency" : 21,
    "latitude" : 33.9353236,
    "longitude" : -117.2784578,
    "name" : "Baker's Burgers -#156- Moreno Valley",
    "telephone" : "(909) 889-7766",
    "zone" : "CA - Moreno Valley"
  }, {
    "address" : "26825 Newport Road\nMenifee, CA 92584",
    "contact_name" : "Carlos Franco",
    "container_size" : 150,
    "formattedAddress" : "26825 Newport Rd, Menifee, CA 92584",
    "frequency" : 14,
    "latitude" : 33.6843692,
    "longitude" : -117.1924117,
    "name" : "Los Primos #31",
    "telephone" : "(619) 822-0178",
    "zone" : "CA - Perris"
  }, {
    "address" : "39252 Winchester Rd.\nMurrieta, CA 92563",
    "contact_name" : "Luis or Irma",
    "container_size" : 40,
    "formattedAddress" : "39252 Winchester Rd, Murrieta, CA 92563",
    "frequency" : 14,
    "latitude" : 33.5506328,
    "longitude" : -117.138861,
    "name" : "Los Primos #14 - Murrieta",
    "telephone" : "(951) 600-9107",
    "zone" : "CA - Temecula"
  }, {
    "address" : "40981 Cal Oaks Rd\nMurrieta, CA 92562",
    "contact_name" : "Carlos",
    "container_size" : 50,
    "formattedAddress" : "40981 California Oaks Rd, Murrieta, CA 92562",
    "frequency" : 14,
    "latitude" : 33.5679607,
    "longitude" : -117.2067019,
    "name" : "Los Primos #6 - Murrieta",
    "telephone" : "(951) 461-0441",
    "zone" : "CA - Temecula"
  }, {
    "address" : "30628 Benton Rd\nWinchester, CA 92596",
    "contact_name" : "Luis Calero",
    "container_size" : 30,
    "formattedAddress" : "30628 Benton Rd, Winchester, CA 92596",
    "frequency" : 14,
    "latitude" : 33.59242,
    "longitude" : -117.1235627,
    "name" : "Los Primos #17 - Winchester",
    "telephone" : "(951) 926-8700",
    "zone" : "CA - Temecula"
  }, {
    "address" : "26479 Ynez Road\n#C\nTemecula, CA 92591",
    "contact_name" : "Lora",
    "container_size" : 150,
    "formattedAddress" : "26479 Ynez Rd, Temecula, CA 92591",
    "frequency" : 14,
    "latitude" : 33.5219684,
    "longitude" : -117.157864,
    "name" : "Shakey's / Temecula",
    "telephone" : "(951) 719-1145",
    "zone" : "CA - Temecula"
  }, {
    "address" : "40720 Winchester Road\nTemecula, CA 92591",
    "contact_name" : "Carlos Franco",
    "container_size" : 275,
    "formattedAddress" : "40720 Winchester Rd, Temecula, CA 92591",
    "frequency" : 14,
    "latitude" : 33.5262931,
    "longitude" : -117.1573811,
    "name" : "Los Primos #32- Temecula",
    "telephone" : "(619) 822-0178",
    "zone" : "CA - Temecula"
  }, {
    "address" : "39562 Winchester Rd\nTemecula, CA 92591",
    "contact_name" : "Ramiro Perez",
    "container_size" : 82,
    "formattedAddress" : "39562 Winchester Rd, Temecula, CA 92591",
    "frequency" : 14,
    "latitude" : 33.5418025,
    "longitude" : -117.1432688,
    "name" : "Rodrigo's - Temecula #621",
    "telephone" : "(951) 506-4191",
    "zone" : "CA - Temecula"
  }, {
    "address" : "4500 Riverwalk Pkwy\nRiverside, CA 92515",
    "contact_name" : "Mylon McDonald",
    "container_size" : 150,
    "formattedAddress" : "4500 Riverwalk Parkway, Riverside, CA 92515",
    "frequency" : 21,
    "latitude" : 33.9104816,
    "longitude" : -117.5023565,
    "name" : "La Sierra University-Commons Bldg",
    "telephone" : "(951) 785 2138",
    "zone" : "CA - Riverside Center"
  }, {
    "address" : "10781 Indiana Ave\nRiverside, CA 92503",
    "contact_name" : "Lisa Jimenez",
    "container_size" : 150,
    "formattedAddress" : "10781 Indiana Ave, Riverside, CA 92503",
    "frequency" : 21,
    "latitude" : 33.9009938,
    "longitude" : -117.4657499,
    "name" : "AMF Riverside Lanes # 267",
    "telephone" : "(951) 353-2695",
    "zone" : "CA - Riverside Center"
  }, {
    "address" : "1450 University Ave\nSuite N\nRiverside, CA 92507",
    "contact_name" : "HOA LETRAN",
    "container_size" : 150,
    "formattedAddress" : "1450 University Ave n, Riverside, CA 92507",
    "frequency" : 21,
    "latitude" : 33.975272,
    "longitude" : -117.3431916,
    "name" : "PHO SAIGON",
    "telephone" : "(951) 369-0306",
    "zone" : "CA - Riverside Center"
  }, {
    "address" : "3740 Iowa Ave\nRiverside, CA 92507",
    "contact_name" : "Antonio Aviilla",
    "container_size" : 40,
    "formattedAddress" : "3740 Iowa Ave, Riverside, CA 92507",
    "frequency" : 21,
    "latitude" : 33.9770648,
    "longitude" : -117.3395048,
    "name" : "Oven 450 / Calibasil",
    "telephone" : "(951) 684-4770",
    "zone" : "CA - Riverside Center"
  }, {
    "address" : "6681 Indiana Ave\nRiverside, CA 92506",
    "contact_name" : "Joe Amlani Jr.",
    "container_size" : 275,
    "formattedAddress" : "6681 Indiana Ave, Riverside, CA 92506",
    "frequency" : 21,
    "latitude" : 33.94468,
    "longitude" : -117.390131,
    "name" : "Baker's Burgers -#164- Riverside",
    "telephone" : "(909) 889-7766",
    "zone" : "CA - Riverside Center"
  }, {
    "address" : "2221 Main St\nRiverside, CA 92501",
    "contact_name" : "Andy Elrahib",
    "container_size" : 275,
    "formattedAddress" : "2221 Main St, Riverside, CA 92501",
    "frequency" : 21,
    "latitude" : 33.9958436,
    "longitude" : -117.3657075,
    "name" : "Baker's Burgers -#148- Riverside",
    "telephone" : "(909) 889-7766",
    "zone" : "CA - Riverside Center"
  }, {
    "address" : "3848 La Sierra Ave\nRiverside, CA 92505",
    "contact_name" : "Dwayne Jordon",
    "container_size" : 150,
    "formattedAddress" : "3848 La Sierra Ave, Riverside, CA 92505",
    "frequency" : 21,
    "latitude" : 33.9036428,
    "longitude" : -117.476948,
    "name" : "Don Jose - Riverside #617",
    "telephone" : "(951) 687-2280",
    "zone" : "CA - Riverside Center"
  }, {
    "address" : "2585 Canyon Springs Parkway\nRiverside, CA 92507",
    "contact_name" : "Mo Farha",
    "container_size" : 84,
    "formattedAddress" : "2585 Canyon Springs Pkwy, Riverside, CA 92507",
    "frequency" : 21,
    "latitude" : 33.9408107,
    "longitude" : -117.2861043,
    "name" : "Burger Boss",
    "telephone" : "(951) 656-6500",
    "zone" : "CA - Riverside Center"
  },